{
  "cctv": [
    {
      "managename": "서울특별시광진구청",
      "Address1": "서울특별시광진구아차산로55길23 (구의동, 신일아트빌라)",
      "purpose": "생활방범",
      "numberofcam": 1,
      "dataduration": 30,
      "setDate": "Apr-17",
      "managecontact": "02-450-7154",
      "latitude": 37.56076,
      "longitude": 127.08888
    },
    {
      "managename": "서울특별시광진구청",
      "Address1": "서울특별시광진구아차산로53길53 (구의동)",
      "purpose": "생활방범",
      "numberofcam": 1,
      "dataduration": 30,
      "setDate": "Apr-17",
      "managecontact": "02-450-7154",
      "latitude": 37.539601,
      "longitude": 127.085641
    },
    {
      "managename": "서울특별시광진구청",
      "Address1": "서울특별시광진구아차산로53길29 (구의동)",
      "purpose": "생활방범",
      "numberofcam": 1,
      "dataduration": 30,
      "setDate": "Apr-17",
      "managecontact": "02-450-7154",
      "latitude": 37.53856,
      "longitude": 127.08568
    },
    {
      "managename": "서울특별시광진구청",
      "Address1": "서울특별시광진구아차산로53길38-12 (구의동)",
      "purpose": "생활방범",
      "numberofcam": 1,
      "dataduration": 30,
      "setDate": "Apr-17",
      "managecontact": "02-450-7154",
      "latitude": 37.5390655,
      "longitude": 127.0861423
    },
    {
      "managename": "서울특별시광진구청",
      "Address1": "서울특별시광진구광나루로30가길9 (구의동, 드림스카이빌)",
      "purpose": "생활방범",
      "numberofcam": 1,
      "dataduration": 30,
      "setDate": "Apr-17",
      "managecontact": "02-450-7154",
      "latitude": 37.5442782,
      "longitude": 127.082624
    },
    {
      "managename": "서울특별시광진구청",
      "Address1": "서울특별시광진구자양로44길141-7 (구의동, 태진빌리지)",
      "purpose": "생활방범",
      "numberofcam": 1,
      "dataduration": 30,
      "setDate": "Apr-17",
      "managecontact": "02-450-7154",
      "latitude": 37.55155,
      "longitude": 127.09571
    },
    {
      "managename": "서울특별시광진구청",
      "Address1": "서울특별시광진구자양로44길69 (구의동)",
      "purpose": "생활방범",
      "numberofcam": 1,
      "dataduration": 30,
      "setDate": "Apr-17",
      "managecontact": "02-450-7154",
      "latitude": 37.5496772,
      "longitude": 127.0950089
    },
    {
      "managename": "서울특별시광진구청",
      "Address1": "서울특별시광진구자양로45길13 (구의동, 영덕주택)",
      "purpose": "생활방범",
      "numberofcam": 1,
      "dataduration": 30,
      "setDate": "Apr-17",
      "managecontact": "02-450-7154",
      "latitude": 37.5517053,
      "longitude": 127.0913436
    },
    {
      "managename": "서울특별시광진구청",
      "Address1": "서울특별시광진구광나루로517-10 (구의동)",
      "purpose": "생활방범",
      "numberofcam": 1,
      "dataduration": 30,
      "setDate": "Apr-17",
      "managecontact": "02-450-7154",
      "latitude": 37.55752,
      "longitude": 127.0953
    },
    {
      "managename": "서울특별시광진구청",
      "Address1": "서울특별시광진구자양로37가길10 (구의동)",
      "purpose": "생활방범",
      "numberofcam": 1,
      "dataduration": 30,
      "setDate": "Apr-17",
      "managecontact": "02-450-7154",
      "latitude": 37.54767,
      "longitude": 127.08717
    },
    {
      "managename": "서울특별시광진구청",
      "Address1": "서울특별시광진구구의동30-1 이화파크맨션",
      "purpose": "생활방범",
      "numberofcam": 1,
      "dataduration": 30,
      "setDate": "Apr-17",
      "managecontact": "02-450-7154",
      "latitude": 37.5535529,
      "longitude": 127.0928489
    },
    {
      "managename": "서울특별시광진구청",
      "Address1": "서울특별시광진구영화사로16가길21 (구의동)",
      "purpose": "생활방범",
      "numberofcam": 1,
      "dataduration": 30,
      "setDate": "Apr-17",
      "managecontact": "02-450-7154",
      "latitude": 37.5534875,
      "longitude": 127.095584
    },
    {
      "managename": "서울특별시광진구청",
      "Address1": "서울특별시광진구자양로53길10 (구의동)",
      "purpose": "생활방범",
      "numberofcam": 1,
      "dataduration": 30,
      "setDate": "Apr-17",
      "managecontact": "02-450-7154",
      "latitude": 37.5539125,
      "longitude": 127.0935461
    },
    {
      "managename": "서울특별시광진구청",
      "Address1": "서울특별시광진구자양로54길11 (구의동)",
      "purpose": "생활방범",
      "numberofcam": 1,
      "dataduration": 30,
      "setDate": "Apr-17",
      "managecontact": "02-450-7154",
      "latitude": 37.55391,
      "longitude": 127.09468
    },
    {
      "managename": "서울특별시광진구청",
      "Address1": "서울특별시광진구자양로51길10-9 (구의동)",
      "purpose": "생활방범",
      "numberofcam": 1,
      "dataduration": 30,
      "setDate": "Apr-17",
      "managecontact": "02-450-7154",
      "latitude": 37.553877,
      "longitude": 127.093424
    },
    {
      "managename": "서울특별시광진구청",
      "Address1": "서울특별시광진구영화사로16길19 (구의동)",
      "purpose": "생활방범",
      "numberofcam": 1,
      "dataduration": 30,
      "setDate": "Apr-17",
      "managecontact": "02-450-7154",
      "latitude": 37.564078,
      "longitude": 127.0811068
    },
    {
      "managename": "서울특별시광진구청",
      "Address1": "서울특별시광진구영화사로16나길21 (구의동, 삼성홈타운)",
      "purpose": "생활방범",
      "numberofcam": 1,
      "dataduration": 30,
      "setDate": "Apr-17",
      "managecontact": "02-450-7154",
      "latitude": 37.55312,
      "longitude": 127.09601
    },
    {
      "managename": "서울특별시광진구청",
      "Address1": "서울특별시광진구자양로52길11 (구의동)",
      "purpose": "생활방범",
      "numberofcam": 1,
      "dataduration": 30,
      "setDate": "Apr-17",
      "managecontact": "02-450-7154",
      "latitude": 37.55301,
      "longitude": 127.09404
    },
    {
      "managename": "서울특별시광진구청",
      "Address1": "서울특별시광진구자양로44길125 (구의동, 상빌리지)",
      "purpose": "생활방범",
      "numberofcam": 1,
      "dataduration": 30,
      "setDate": "Apr-17",
      "managecontact": "02-450-7154",
      "latitude": 37.551148,
      "longitude": 127.09652
    },
    {
      "managename": "서울특별시광진구청",
      "Address1": "서울특별시광진구자양로44나길26-14 (구의동, 대원빌라)",
      "purpose": "생활방범",
      "numberofcam": 1,
      "dataduration": 30,
      "setDate": "Apr-17",
      "managecontact": "02-450-7154",
      "latitude": 37.5507462,
      "longitude": 127.0959624
    },
    {
      "managename": "서울특별시광진구청",
      "Address1": "서울특별시광진구자양로44나길39 (구의동, 신흥아트빌)",
      "purpose": "생활방범",
      "numberofcam": 1,
      "dataduration": 30,
      "setDate": "Apr-17",
      "managecontact": "02-450-7154",
      "latitude": 37.55154,
      "longitude": 127.09448
    },
    {
      "managename": "서울특별시광진구청",
      "Address1": "서울특별시광진구천호대로137길38 (구의동, 현대아트빌)",
      "purpose": "생활방범",
      "numberofcam": 1,
      "dataduration": 30,
      "setDate": "Apr-17",
      "managecontact": "02-450-7154",
      "latitude": 37.5506688,
      "longitude": 127.0936863
    },
    {
      "managename": "서울특별시광진구청",
      "Address1": "서울특별시광진구자양로49길15-2 (구의동, 현대아트빌라)",
      "purpose": "생활방범",
      "numberofcam": 1,
      "dataduration": 30,
      "setDate": "Apr-17",
      "managecontact": "02-450-7154",
      "latitude": 37.5528268,
      "longitude": 127.0919026
    },
    {
      "managename": "서울특별시광진구청",
      "Address1": "서울특별시광진구자양로43길8 (구의동)",
      "purpose": "생활방범",
      "numberofcam": 1,
      "dataduration": 30,
      "setDate": "Apr-17",
      "managecontact": "02-450-7154",
      "latitude": 37.5511303,
      "longitude": 127.0910435
    },
    {
      "managename": "서울특별시광진구청",
      "Address1": "서울특별시광진구영화사로11길22 (구의동, 상평그린빌)",
      "purpose": "생활방범",
      "numberofcam": 1,
      "dataduration": 30,
      "setDate": "Apr-17",
      "managecontact": "02-450-7154",
      "latitude": 37.5554242,
      "longitude": 127.0942907
    },
    {
      "managename": "서울특별시광진구청",
      "Address1": "서울특별시광진구영화사로15길23 (구의동)",
      "purpose": "생활방범",
      "numberofcam": 1,
      "dataduration": 30,
      "setDate": "Apr-17",
      "managecontact": "02-450-7154",
      "latitude": 37.5550604,
      "longitude": 127.095123
    },
    {
      "managename": "서울특별시광진구청",
      "Address1": "서울특별시광진구천호대로135길16 (구의동)",
      "purpose": "생활방범",
      "numberofcam": 1,
      "dataduration": 30,
      "setDate": "Apr-17",
      "managecontact": "02-450-7154",
      "latitude": 37.55024,
      "longitude": 127.09235
    },
    {
      "managename": "서울특별시광진구청",
      "Address1": "서울특별시광진구천호대로137길10 (구의동)",
      "purpose": "생활방범",
      "numberofcam": 1,
      "dataduration": 30,
      "setDate": "Apr-17",
      "managecontact": "02-450-7154",
      "latitude": 37.549664,
      "longitude": 127.0931769
    },
    {
      "managename": "서울특별시광진구청",
      "Address1": "서울특별시광진구자양로42길42-24 (구의동)",
      "purpose": "생활방범",
      "numberofcam": 1,
      "dataduration": 30,
      "setDate": "Apr-17",
      "managecontact": "02-450-7154",
      "latitude": 37.5478899,
      "longitude": 127.0916503
    },
    {
      "managename": "서울특별시광진구청",
      "Address1": "서울특별시광진구자양로23길86 (구의동)",
      "purpose": "생활방범",
      "numberofcam": 1,
      "dataduration": 30,
      "setDate": "Apr-17",
      "managecontact": "02-450-7154",
      "latitude": 37.5441388,
      "longitude": 127.0839725
    },
    {
      "managename": "서울특별시광진구청",
      "Address1": "서울특별시광진구자양로37길33 (구의동, 지은아트빌)",
      "purpose": "생활방범",
      "numberofcam": 1,
      "dataduration": 30,
      "setDate": "Apr-17",
      "managecontact": "02-450-7154",
      "latitude": 37.548383,
      "longitude": 127.086479
    },
    {
      "managename": "서울특별시광진구청",
      "Address1": "서울특별시광진구자양로37길21 (구의동)",
      "purpose": "생활방범",
      "numberofcam": 1,
      "dataduration": 30,
      "setDate": "Apr-17",
      "managecontact": "02-450-7154",
      "latitude": 37.5482635,
      "longitude": 127.08698
    },
    {
      "managename": "서울특별시광진구청",
      "Address1": "서울특별시광진구자양로33길44 (구의동)",
      "purpose": "생활방범",
      "numberofcam": 1,
      "dataduration": 30,
      "setDate": "Apr-17",
      "managecontact": "02-450-7154",
      "latitude": 37.54773,
      "longitude": 127.08641
    },
    {
      "managename": "서울특별시광진구청",
      "Address1": "서울특별시광진구천호대로134길55 (구의동)",
      "purpose": "생활방범",
      "numberofcam": 1,
      "dataduration": 30,
      "setDate": "Apr-17",
      "managecontact": "02-450-7154",
      "latitude": 37.5471431,
      "longitude": 127.0886399
    },
    {
      "managename": "서울특별시광진구청",
      "Address1": "서울특별시광진구자양로36길17-12 (구의동)",
      "purpose": "생활방범",
      "numberofcam": 1,
      "dataduration": 30,
      "setDate": "Apr-17",
      "managecontact": "02-450-7154",
      "latitude": 37.54638,
      "longitude": 127.08829
    },
    {
      "managename": "서울특별시광진구청",
      "Address1": "서울특별시광진구자양로36길11 (구의동)",
      "purpose": "생활방범",
      "numberofcam": 1,
      "dataduration": 30,
      "setDate": "Apr-17",
      "managecontact": "02-450-7154",
      "latitude": 37.5463174,
      "longitude": 127.087542
    },
    {
      "managename": "서울특별시광진구청",
      "Address1": "서울특별시광진구천호대로132길27-7 (구의동)",
      "purpose": "생활방범",
      "numberofcam": 1,
      "dataduration": 30,
      "setDate": "Apr-17",
      "managecontact": "02-450-7154",
      "latitude": 37.54941,
      "longitude": 127.08928
    },
    {
      "managename": "서울특별시광진구청",
      "Address1": "서울특별시광진구아차산로58길51 (구의동)",
      "purpose": "생활방범",
      "numberofcam": 1,
      "dataduration": 30,
      "setDate": "Apr-17",
      "managecontact": "02-450-7154",
      "latitude": 37.53585,
      "longitude": 127.08952
    },
    {
      "managename": "서울특별시광진구청",
      "Address1": "서울특별시광진구구의동203-26 숲속어린이집",
      "purpose": "생활방범",
      "numberofcam": 1,
      "dataduration": 30,
      "setDate": "Apr-17",
      "managecontact": "02-450-7154",
      "latitude": 37.54386,
      "longitude": 127.09155
    },
    {
      "managename": "서울특별시광진구청",
      "Address1": "서울특별시광진구구의로16길36 (구의동, 명성맨션)",
      "purpose": "생활방범",
      "numberofcam": 1,
      "dataduration": 30,
      "setDate": "Apr-17",
      "managecontact": "02-450-7154",
      "latitude": 37.54316,
      "longitude": 127.09238
    },
    {
      "managename": "서울특별시광진구청",
      "Address1": "서울특별시광진구구의로16길68 (구의동)",
      "purpose": "생활방범",
      "numberofcam": 1,
      "dataduration": 30,
      "setDate": "Apr-17",
      "managecontact": "02-450-7154",
      "latitude": 37.54229,
      "longitude": 127.09347
    },
    {
      "managename": "서울특별시광진구청",
      "Address1": "서울특별시광진구광나루로52길12 (구의동)",
      "purpose": "생활방범",
      "numberofcam": 1,
      "dataduration": 30,
      "setDate": "Apr-17",
      "managecontact": "02-450-7154",
      "latitude": 37.54122,
      "longitude": 127.09457
    },
    {
      "managename": "서울특별시광진구청",
      "Address1": "서울특별시광진구아차산로65길14 (구의동)",
      "purpose": "생활방범",
      "numberofcam": 4,
      "dataduration": 30,
      "setDate": "Apr-17",
      "managecontact": "02-450-7154",
      "latitude": 37.54105,
      "longitude": 127.09409
    },
    {
      "managename": "서울특별시광진구청",
      "Address1": "서울특별시광진구구의로4길51 (구의동)",
      "purpose": "생활방범",
      "numberofcam": 1,
      "dataduration": 30,
      "setDate": "Apr-17",
      "managecontact": "02-450-7154",
      "latitude": 37.54084,
      "longitude": 127.09226
    },
    {
      "managename": "서울특별시광진구청",
      "Address1": "서울특별시광진구구의로6길21 (구의동, 뉴현대빌라)",
      "purpose": "생활방범",
      "numberofcam": 1,
      "dataduration": 30,
      "setDate": "Apr-17",
      "managecontact": "02-450-7154",
      "latitude": 37.54153,
      "longitude": 127.09121
    },
    {
      "managename": "서울특별시광진구청",
      "Address1": "서울특별시광진구아차산로63길37 (구의동, 청호)",
      "purpose": "생활방범",
      "numberofcam": 1,
      "dataduration": 30,
      "setDate": "Apr-17",
      "managecontact": "02-450-7154",
      "latitude": 37.541204,
      "longitude": 127.092172
    },
    {
      "managename": "서울특별시광진구청",
      "Address1": "서울특별시광진구구의로4길40 (구의동)",
      "purpose": "생활방범",
      "numberofcam": 1,
      "dataduration": 30,
      "setDate": "Apr-17",
      "managecontact": "02-450-7154",
      "latitude": 37.54041,
      "longitude": 127.09178
    },
    {
      "managename": "서울특별시광진구청",
      "Address1": "서울특별시광진구구의로4길60 (구의동)",
      "purpose": "생활방범",
      "numberofcam": 1,
      "dataduration": 30,
      "setDate": "Apr-17",
      "managecontact": "02-450-7154",
      "latitude": 37.54093,
      "longitude": 127.09262
    },
    {
      "managename": "서울특별시광진구청",
      "Address1": "서울특별시광진구광나루로52길43 (구의동, 새일빌라)",
      "purpose": "생활방범",
      "numberofcam": 1,
      "dataduration": 30,
      "setDate": "Apr-17",
      "managecontact": "02-450-7154",
      "latitude": 37.5402965,
      "longitude": 127.093348
    },
    {
      "managename": "서울특별시광진구청",
      "Address1": "서울특별시광진구아차산로60길13-13 (구의동)",
      "purpose": "생활방범",
      "numberofcam": 1,
      "dataduration": 30,
      "setDate": "Apr-17",
      "managecontact": "02-450-7154",
      "latitude": 37.5383019,
      "longitude": 127.092318
    },
    {
      "managename": "서울특별시광진구청",
      "Address1": "서울특별시광진구광나루로52길83 (구의동)",
      "purpose": "생활방범",
      "numberofcam": 1,
      "dataduration": 30,
      "setDate": "Apr-17",
      "managecontact": "02-450-7154",
      "latitude": 37.53911,
      "longitude": 127.09136
    },
    {
      "managename": "서울특별시광진구청",
      "Address1": "서울특별시광진구아차산로59길21-13 (구의동)",
      "purpose": "생활방범",
      "numberofcam": 1,
      "dataduration": 30,
      "setDate": "Apr-17",
      "managecontact": "02-450-7154",
      "latitude": 37.53957,
      "longitude": 127.09002
    },
    {
      "managename": "서울특별시광진구청",
      "Address1": "서울특별시광진구구의로4길7-16 (구의동)",
      "purpose": "생활방범",
      "numberofcam": 1,
      "dataduration": 30,
      "setDate": "Apr-17",
      "managecontact": "02-450-7154",
      "latitude": 37.54076,
      "longitude": 127.0903
    },
    {
      "managename": "서울특별시광진구청",
      "Address1": "서울특별시광진구구의로56 (구의동)",
      "purpose": "생활방범",
      "numberofcam": 1,
      "dataduration": 30,
      "setDate": "Apr-17",
      "managecontact": "02-450-7154",
      "latitude": 37.542868,
      "longitude": 127.090394
    },
    {
      "managename": "서울특별시광진구청",
      "Address1": "서울특별시광진구아차산로59길13 (구의동)",
      "purpose": "생활방범",
      "numberofcam": 1,
      "dataduration": 30,
      "setDate": "Apr-17",
      "managecontact": "02-450-7154",
      "latitude": 37.5394978,
      "longitude": 127.090621
    },
    {
      "managename": "서울특별시광진구청",
      "Address1": "서울특별시광진구뚝섬로67길23 (구의동, 한강연립)",
      "purpose": "생활방범",
      "numberofcam": 1,
      "dataduration": 30,
      "setDate": "Apr-17",
      "managecontact": "02-450-7154",
      "latitude": 37.53524,
      "longitude": 127.09051
    },
    {
      "managename": "서울특별시광진구청",
      "Address1": "서울특별시광진구뚝섬로741 (구의동)",
      "purpose": "생활방범",
      "numberofcam": 1,
      "dataduration": 30,
      "setDate": "Apr-17",
      "managecontact": "02-450-7154",
      "latitude": 37.5343206,
      "longitude": 127.0910414
    },
    {
      "managename": "서울특별시광진구청",
      "Address1": "서울특별시광진구천호대로661 (구의동)",
      "purpose": "생활방범",
      "numberofcam": 1,
      "dataduration": 30,
      "setDate": "Apr-17",
      "managecontact": "02-450-7154",
      "latitude": 37.5517067,
      "longitude": 127.0900934
    },
    {
      "managename": "서울특별시광진구청",
      "Address1": "서울특별시광진구천호대로104나길8 (군자동, 미리내)",
      "purpose": "생활방범",
      "numberofcam": 1,
      "dataduration": 30,
      "setDate": "Apr-17",
      "managecontact": "02-450-7154",
      "latitude": 37.55704,
      "longitude": 127.07495
    },
    {
      "managename": "서울특별시광진구청",
      "Address1": "서울특별시광진구면목로27 (군자동)",
      "purpose": "생활방범",
      "numberofcam": 1,
      "dataduration": 30,
      "setDate": "Apr-17",
      "managecontact": "02-450-7154",
      "latitude": 37.5566079,
      "longitude": 127.076012
    },
    {
      "managename": "서울특별시광진구청",
      "Address1": "서울특별시광진구면목로6길18 (군자동)",
      "purpose": "생활방범",
      "numberofcam": 1,
      "dataduration": 30,
      "setDate": "Apr-17",
      "managecontact": "02-450-7154",
      "latitude": 37.5559632,
      "longitude": 127.076515
    },
    {
      "managename": "서울특별시광진구청",
      "Address1": "서울특별시광진구능동로27길33 (군자동)",
      "purpose": "생활방범",
      "numberofcam": 1,
      "dataduration": 30,
      "setDate": "Apr-17",
      "managecontact": "02-450-7154",
      "latitude": 37.5546174,
      "longitude": 127.0765348
    },
    {
      "managename": "서울특별시광진구청",
      "Address1": "서울특별시광진구능동로27나길17 (군자동)",
      "purpose": "생활방범",
      "numberofcam": 1,
      "dataduration": 30,
      "setDate": "Apr-17",
      "managecontact": "02-450-7154",
      "latitude": 37.554101,
      "longitude": 127.0757955
    },
    {
      "managename": "서울특별시광진구청",
      "Address1": "서울특별시광진구능동로25길22 (군자동)",
      "purpose": "생활방범",
      "numberofcam": 1,
      "dataduration": 30,
      "setDate": "Apr-17",
      "managecontact": "02-450-7154",
      "latitude": 37.55303,
      "longitude": 127.07585
    },
    {
      "managename": "서울특별시광진구청",
      "Address1": "서울특별시광진구동일로52길15-14 (군자동, 드하우스)",
      "purpose": "생활방범",
      "numberofcam": 1,
      "dataduration": 30,
      "setDate": "Apr-17",
      "managecontact": "02-450-7154",
      "latitude": 37.55517,
      "longitude": 127.07254
    },
    {
      "managename": "서울특별시광진구청",
      "Address1": "서울특별시광진구동일로48길14-10 (군자동)",
      "purpose": "생활방범",
      "numberofcam": 1,
      "dataduration": 30,
      "setDate": "Apr-17",
      "managecontact": "02-450-7154",
      "latitude": 37.55394,
      "longitude": 127.07108
    },
    {
      "managename": "서울특별시광진구청",
      "Address1": "서울특별시광진구군자로15길10-6 (군자동)",
      "purpose": "생활방범",
      "numberofcam": 1,
      "dataduration": 30,
      "setDate": "Apr-17",
      "managecontact": "02-450-7154",
      "latitude": 37.55404,
      "longitude": 127.07375
    },
    {
      "managename": "서울특별시광진구청",
      "Address1": "서울특별시광진구능동로29가길24 (군자동)",
      "purpose": "생활방범",
      "numberofcam": 1,
      "dataduration": 30,
      "setDate": "Apr-17",
      "managecontact": "02-450-7154",
      "latitude": 37.5557243,
      "longitude": 127.0779249
    },
    {
      "managename": "서울특별시광진구청",
      "Address1": "서울특별시광진구능동로27길9 (군자동)",
      "purpose": "생활방범",
      "numberofcam": 1,
      "dataduration": 30,
      "setDate": "Apr-17",
      "managecontact": "02-450-7154",
      "latitude": 37.5537912,
      "longitude": 127.0767941
    },
    {
      "managename": "서울특별시광진구청",
      "Address1": "서울특별시광진구군자동275-2",
      "purpose": "생활방범",
      "numberofcam": 1,
      "dataduration": 30,
      "setDate": "Apr-17",
      "managecontact": "02-450-7154",
      "latitude": 37.5522811,
      "longitude": 127.074857
    },
    {
      "managename": "서울특별시광진구청",
      "Address1": "서울특별시광진구군자동346-25",
      "purpose": "생활방범",
      "numberofcam": 1,
      "dataduration": 30,
      "setDate": "Apr-17",
      "managecontact": "02-450-7154",
      "latitude": 37.55032,
      "longitude": 127.07047
    },
    {
      "managename": "서울특별시광진구청",
      "Address1": "서울특별시광진구광나루로17길14 (군자동)",
      "purpose": "생활방범",
      "numberofcam": 1,
      "dataduration": 30,
      "setDate": "Apr-17",
      "managecontact": "02-450-7154",
      "latitude": 37.5482467,
      "longitude": 127.072812
    },
    {
      "managename": "서울특별시광진구청",
      "Address1": "서울특별시광진구동일로60길25 (군자동)",
      "purpose": "생활방범",
      "numberofcam": 1,
      "dataduration": 30,
      "setDate": "Apr-17",
      "managecontact": "02-450-7154",
      "latitude": 37.55925,
      "longitude": 127.07613
    },
    {
      "managename": "서울특별시광진구청",
      "Address1": "서울특별시광진구군자로17길34 (군자동)",
      "purpose": "생활방범",
      "numberofcam": 1,
      "dataduration": 30,
      "setDate": "Apr-17",
      "managecontact": "02-450-7154",
      "latitude": 37.5566623,
      "longitude": 127.077294
    },
    {
      "managename": "서울특별시광진구청",
      "Address1": "서울특별시광진구군자로179-2 (군자동)",
      "purpose": "생활방범",
      "numberofcam": 1,
      "dataduration": 30,
      "setDate": "Apr-17",
      "managecontact": "02-450-7154",
      "latitude": 37.5567973,
      "longitude": 127.0781615
    },
    {
      "managename": "서울특별시광진구청",
      "Address1": "서울특별시광진구천호대로116길88 (능동)",
      "purpose": "생활방범",
      "numberofcam": 1,
      "dataduration": 30,
      "setDate": "Apr-17",
      "managecontact": "02-450-7154",
      "latitude": 37.5521988,
      "longitude": 127.0818788
    },
    {
      "managename": "서울특별시광진구청",
      "Address1": "서울특별시광진구능동로24길76 (능동, 포스빌)",
      "purpose": "생활방범",
      "numberofcam": 1,
      "dataduration": 30,
      "setDate": "Apr-17",
      "managecontact": "02-450-7154",
      "latitude": 37.5531055,
      "longitude": 127.0805008
    },
    {
      "managename": "서울특별시광진구청",
      "Address1": "서울특별시광진구천호대로110길34 (능동)",
      "purpose": "생활방범",
      "numberofcam": 1,
      "dataduration": 30,
      "setDate": "Apr-17",
      "managecontact": "02-450-7154",
      "latitude": 37.5556814,
      "longitude": 127.0794805
    },
    {
      "managename": "서울특별시광진구청",
      "Address1": "서울특별시광진구능동로36길12 (능동)",
      "purpose": "생활방범",
      "numberofcam": 1,
      "dataduration": 30,
      "setDate": "Apr-17",
      "managecontact": "02-450-7154",
      "latitude": 37.5561552,
      "longitude": 127.0797857
    },
    {
      "managename": "서울특별시광진구청",
      "Address1": "서울특별시광진구능동로36길34-4 (능동)",
      "purpose": "생활방범",
      "numberofcam": 1,
      "dataduration": 30,
      "setDate": "Apr-17",
      "managecontact": "02-450-7154",
      "latitude": 37.5557072,
      "longitude": 127.0809038
    },
    {
      "managename": "서울특별시광진구청",
      "Address1": "서울특별시광진구천호대로112길25 (능동)",
      "purpose": "생활방범",
      "numberofcam": 1,
      "dataduration": 30,
      "setDate": "Apr-17",
      "managecontact": "02-450-7154",
      "latitude": 37.55492,
      "longitude": 127.08124
    },
    {
      "managename": "서울특별시광진구청",
      "Address1": "서울특별시광진구천호대로116길26 (능동)",
      "purpose": "생활방범",
      "numberofcam": 1,
      "dataduration": 30,
      "setDate": "Apr-17",
      "managecontact": "02-450-7154",
      "latitude": 37.55405,
      "longitude": 127.08349
    },
    {
      "managename": "서울특별시광진구청",
      "Address1": "서울특별시광진구능동로32길82-34 (능동)",
      "purpose": "생활방범",
      "numberofcam": 1,
      "dataduration": 30,
      "setDate": "Apr-17",
      "managecontact": "02-450-7154",
      "latitude": 37.552977,
      "longitude": 127.0823146
    },
    {
      "managename": "서울특별시광진구청",
      "Address1": "서울특별시광진구능동로32길102 (능동, 정수아트빌)",
      "purpose": "생활방범",
      "numberofcam": 1,
      "dataduration": 30,
      "setDate": "Apr-17",
      "managecontact": "02-450-7154",
      "latitude": 37.5527,
      "longitude": 127.08292
    },
    {
      "managename": "서울특별시광진구청",
      "Address1": "서울특별시광진구천호대로118길36 (능동)",
      "purpose": "생활방범",
      "numberofcam": 1,
      "dataduration": 30,
      "setDate": "Apr-17",
      "managecontact": "02-450-7154",
      "latitude": 37.5530471,
      "longitude": 127.0846701
    },
    {
      "managename": "서울특별시광진구청",
      "Address1": "서울특별시광진구천호대로118길16 (능동)",
      "purpose": "생활방범",
      "numberofcam": 1,
      "dataduration": 30,
      "setDate": "Apr-17",
      "managecontact": "02-450-7154",
      "latitude": 37.56175,
      "longitude": 127.07968
    },
    {
      "managename": "서울특별시광진구청",
      "Address1": "서울특별시광진구천호대로124길86 (능동)",
      "purpose": "생활방범",
      "numberofcam": 1,
      "dataduration": 30,
      "setDate": "Apr-17",
      "managecontact": "02-450-7154",
      "latitude": 37.5520517,
      "longitude": 127.084983
    },
    {
      "managename": "서울특별시광진구청",
      "Address1": "서울특별시광진구천호대로120길21 (능동)",
      "purpose": "생활방범",
      "numberofcam": 1,
      "dataduration": 30,
      "setDate": "Apr-17",
      "managecontact": "02-450-7154",
      "latitude": 37.55316,
      "longitude": 127.08639
    },
    {
      "managename": "서울특별시광진구청",
      "Address1": "서울특별시광진구능동256-17",
      "purpose": "생활방범",
      "numberofcam": 1,
      "dataduration": 30,
      "setDate": "Apr-17",
      "managecontact": "02-450-7154",
      "latitude": 37.55309,
      "longitude": 127.08805
    },
    {
      "managename": "서울특별시광진구청",
      "Address1": "서울특별시광진구천호대로122길33 (능동)",
      "purpose": "생활방범",
      "numberofcam": 1,
      "dataduration": 30,
      "setDate": "Apr-17",
      "managecontact": "02-450-7154",
      "latitude": 37.5521477,
      "longitude": 127.087433
    },
    {
      "managename": "서울특별시광진구청",
      "Address1": "서울특별시광진구천호대로110길87 (능동)",
      "purpose": "생활방범",
      "numberofcam": 1,
      "dataduration": 30,
      "setDate": "Apr-17",
      "managecontact": "02-450-7154",
      "latitude": 37.5534441,
      "longitude": 127.078465
    },
    {
      "managename": "서울특별시광진구청",
      "Address1": "서울특별시광진구능동로24길41 (능동)",
      "purpose": "생활방범",
      "numberofcam": 1,
      "dataduration": 30,
      "setDate": "Apr-17",
      "managecontact": "02-450-7154",
      "latitude": 37.5522927,
      "longitude": 127.0790766
    },
    {
      "managename": "서울특별시광진구청",
      "Address1": "서울특별시광진구능동로26길23 (능동)",
      "purpose": "생활방범",
      "numberofcam": 1,
      "dataduration": 30,
      "setDate": "Apr-17",
      "managecontact": "02-450-7154",
      "latitude": 37.55261,
      "longitude": 127.07865
    },
    {
      "managename": "서울특별시광진구청",
      "Address1": "서울특별시광진구능동로32길16-16 (능동)",
      "purpose": "생활방범",
      "numberofcam": 1,
      "dataduration": 30,
      "setDate": "Apr-17",
      "managecontact": "02-450-7154",
      "latitude": 37.554561,
      "longitude": 127.0791803
    },
    {
      "managename": "서울특별시광진구청",
      "Address1": "서울특별시광진구능동367-2",
      "purpose": "생활방범",
      "numberofcam": 1,
      "dataduration": 30,
      "setDate": "Apr-17",
      "managecontact": "02-450-7154",
      "latitude": 37.5536,
      "longitude": 127.07932
    },
    {
      "managename": "서울특별시광진구청",
      "Address1": "서울특별시광진구자양로13길41 (자양동)",
      "purpose": "생활방범",
      "numberofcam": 1,
      "dataduration": 30,
      "setDate": "Apr-17",
      "managecontact": "02-450-7154",
      "latitude": 37.5344564,
      "longitude": 127.082208
    },
    {
      "managename": "서울특별시광진구청",
      "Address1": "서울특별시광진구자양로21길35 (자양동, 은하빌라)",
      "purpose": "생활방범",
      "numberofcam": 1,
      "dataduration": 30,
      "setDate": "Apr-17",
      "managecontact": "02-450-7154",
      "latitude": 37.53944,
      "longitude": 127.08133
    },
    {
      "managename": "서울특별시광진구청",
      "Address1": "서울특별시광진구아차산로46길23 (자양동)",
      "purpose": "생활방범",
      "numberofcam": 1,
      "dataduration": 30,
      "setDate": "Apr-17",
      "managecontact": "02-450-7154",
      "latitude": 37.5360131,
      "longitude": 127.0808661
    },
    {
      "managename": "서울특별시광진구청",
      "Address1": "서울특별시광진구아차산로46가길19 (자양동)",
      "purpose": "생활방범",
      "numberofcam": 1,
      "dataduration": 30,
      "setDate": "Apr-17",
      "managecontact": "02-450-7154",
      "latitude": 37.5364,
      "longitude": 127.08188
    },
    {
      "managename": "서울특별시광진구청",
      "Address1": "서울특별시광진구자양로15길6 (자양동)",
      "purpose": "생활방범",
      "numberofcam": 1,
      "dataduration": 30,
      "setDate": "Apr-17",
      "managecontact": "02-450-7154",
      "latitude": 37.5359157,
      "longitude": 127.0831625
    },
    {
      "managename": "서울특별시광진구청",
      "Address1": "서울특별시광진구뚝섬로47길49 (자양동)",
      "purpose": "생활방범",
      "numberofcam": 1,
      "dataduration": 30,
      "setDate": "Apr-17",
      "managecontact": "02-450-7154",
      "latitude": 37.53443,
      "longitude": 127.07899
    },
    {
      "managename": "서울특별시광진구청",
      "Address1": "서울특별시광진구자양로15길85 (자양동)",
      "purpose": "생활방범",
      "numberofcam": 1,
      "dataduration": 30,
      "setDate": "Apr-17",
      "managecontact": "02-450-7154",
      "latitude": 37.53475,
      "longitude": 127.07899
    },
    {
      "managename": "서울특별시광진구청",
      "Address1": "서울특별시광진구자양로13길100 (자양동)",
      "purpose": "생활방범",
      "numberofcam": 1,
      "dataduration": 30,
      "setDate": "Apr-17",
      "managecontact": "02-450-7154",
      "latitude": 37.53255,
      "longitude": 127.0797
    },
    {
      "managename": "서울특별시광진구청",
      "Address1": "서울특별시광진구뚝섬로51길24 (자양동)",
      "purpose": "생활방범",
      "numberofcam": 1,
      "dataduration": 30,
      "setDate": "Apr-17",
      "managecontact": "02-450-7154",
      "latitude": 37.53359,
      "longitude": 127.08025
    },
    {
      "managename": "서울특별시광진구청",
      "Address1": "서울특별시광진구자양로13다길34 (자양동)",
      "purpose": "생활방범",
      "numberofcam": 1,
      "dataduration": 30,
      "setDate": "Apr-17",
      "managecontact": "02-450-7154",
      "latitude": 37.53318,
      "longitude": 127.07817
    },
    {
      "managename": "서울특별시광진구청",
      "Address1": "서울특별시광진구자양로13나길14 (자양동)",
      "purpose": "생활방범",
      "numberofcam": 1,
      "dataduration": 30,
      "setDate": "Apr-17",
      "managecontact": "02-450-7154",
      "latitude": 37.53398,
      "longitude": 127.08037
    },
    {
      "managename": "서울특별시광진구청",
      "Address1": "서울특별시광진구자양로9길24-3 (자양동)",
      "purpose": "생활방범",
      "numberofcam": 1,
      "dataduration": 30,
      "setDate": "Apr-17",
      "managecontact": "02-450-7154",
      "latitude": 37.5337408,
      "longitude": 127.082921
    },
    {
      "managename": "서울특별시광진구청",
      "Address1": "서울특별시광진구자양로13길73 (자양동)",
      "purpose": "생활방범",
      "numberofcam": 1,
      "dataduration": 30,
      "setDate": "Apr-17",
      "managecontact": "02-450-7154",
      "latitude": 37.53345,
      "longitude": 127.08109
    },
    {
      "managename": "서울특별시광진구청",
      "Address1": "서울특별시광진구자양로11길45-8 (자양동)",
      "purpose": "생활방범",
      "numberofcam": 1,
      "dataduration": 30,
      "setDate": "Apr-17",
      "managecontact": "02-450-7154",
      "latitude": 37.53335,
      "longitude": 127.0821
    },
    {
      "managename": "서울특별시광진구청",
      "Address1": "서울특별시광진구자양로9길32 (자양동)",
      "purpose": "생활방범",
      "numberofcam": 1,
      "dataduration": 30,
      "setDate": "Apr-17",
      "managecontact": "02-450-7154",
      "latitude": 37.5335,
      "longitude": 127.08259
    },
    {
      "managename": "서울특별시광진구청",
      "Address1": "서울특별시광진구뚝섬로57가길55 (자양동, 현대빌라)",
      "purpose": "생활방범",
      "numberofcam": 1,
      "dataduration": 30,
      "setDate": "Apr-17",
      "managecontact": "02-450-7154",
      "latitude": 37.5322783,
      "longitude": 127.080604
    },
    {
      "managename": "서울특별시광진구청",
      "Address1": "서울특별시광진구뚝섬로55길19 (자양동)",
      "purpose": "생활방범",
      "numberofcam": 1,
      "dataduration": 30,
      "setDate": "Apr-17",
      "managecontact": "02-450-7154",
      "latitude": 37.5323593,
      "longitude": 127.082261
    },
    {
      "managename": "서울특별시광진구청",
      "Address1": "서울특별시광진구자양로21길14 (자양동, 유동빌라)",
      "purpose": "생활방범",
      "numberofcam": 1,
      "dataduration": 30,
      "setDate": "Apr-17",
      "managecontact": "02-450-7154",
      "latitude": 37.5398932,
      "longitude": 127.082359
    },
    {
      "managename": "서울특별시광진구청",
      "Address1": "서울특별시광진구자양로19길48-4 (자양동)",
      "purpose": "생활방범",
      "numberofcam": 1,
      "dataduration": 30,
      "setDate": "Apr-17",
      "managecontact": "02-450-7154",
      "latitude": 37.53833,
      "longitude": 127.08095
    },
    {
      "managename": "서울특별시광진구청",
      "Address1": "서울특별시광진구자양로19길54 (자양동)",
      "purpose": "생활방범",
      "numberofcam": 1,
      "dataduration": 30,
      "setDate": "Apr-17",
      "managecontact": "02-450-7154",
      "latitude": 37.53823,
      "longitude": 127.08052
    },
    {
      "managename": "서울특별시광진구청",
      "Address1": "서울특별시광진구뚝섬로52마길60 (자양동)",
      "purpose": "생활방범",
      "numberofcam": 1,
      "dataduration": 30,
      "setDate": "Apr-17",
      "managecontact": "02-450-7154",
      "latitude": 37.5282384,
      "longitude": 127.081345
    },
    {
      "managename": "서울특별시광진구청",
      "Address1": "서울특별시광진구자양로3길7 (자양동)",
      "purpose": "생활방범",
      "numberofcam": 1,
      "dataduration": 30,
      "setDate": "Apr-17",
      "managecontact": "02-450-7154",
      "latitude": 37.5307101,
      "longitude": 127.0864854
    },
    {
      "managename": "서울특별시광진구청",
      "Address1": "서울특별시광진구자양로5길13 (자양동)",
      "purpose": "생활방범",
      "numberofcam": 1,
      "dataduration": 30,
      "setDate": "Apr-17",
      "managecontact": "02-450-7154",
      "latitude": 37.5315688,
      "longitude": 127.085163
    },
    {
      "managename": "서울특별시광진구청",
      "Address1": "서울특별시광진구자양로6길40 (자양동, 대양샤인빌)",
      "purpose": "생활방범",
      "numberofcam": 1,
      "dataduration": 30,
      "setDate": "Apr-17",
      "managecontact": "02-450-7154",
      "latitude": 37.53268,
      "longitude": 127.08793
    },
    {
      "managename": "서울특별시광진구청",
      "Address1": "서울특별시광진구뚝섬로48길52 (자양동)",
      "purpose": "생활방범",
      "numberofcam": 1,
      "dataduration": 30,
      "setDate": "Apr-17",
      "managecontact": "02-450-7154",
      "latitude": 37.52969,
      "longitude": 127.07667
    },
    {
      "managename": "서울특별시광진구청",
      "Address1": "서울특별시광진구뚝섬로50길28 (자양동)",
      "purpose": "생활방범",
      "numberofcam": 1,
      "dataduration": 30,
      "setDate": "Apr-17",
      "managecontact": "02-450-7154",
      "latitude": 37.53119,
      "longitude": 127.07786
    },
    {
      "managename": "서울특별시광진구청",
      "Address1": "서울특별시광진구자양번영로6길67 (자양동)",
      "purpose": "생활방범",
      "numberofcam": 1,
      "dataduration": 30,
      "setDate": "Apr-17",
      "managecontact": "02-450-7154",
      "latitude": 37.53159,
      "longitude": 127.07921
    },
    {
      "managename": "서울특별시광진구청",
      "Address1": "서울특별시광진구뚝섬로54길24 (자양동, 대명아트빌)",
      "purpose": "생활방범",
      "numberofcam": 1,
      "dataduration": 30,
      "setDate": "Apr-17",
      "managecontact": "02-450-7154",
      "latitude": 37.53052,
      "longitude": 127.08044
    },
    {
      "managename": "서울특별시광진구청",
      "Address1": "서울특별시광진구뚝섬로54길46 (자양동)",
      "purpose": "생활방범",
      "numberofcam": 1,
      "dataduration": 30,
      "setDate": "Apr-17",
      "managecontact": "02-450-7154",
      "latitude": 37.529519,
      "longitude": 127.0800602
    },
    {
      "managename": "서울특별시광진구청",
      "Address1": "서울특별시광진구뚝섬로52마길42-15 (자양동, 기산빌라트)",
      "purpose": "생활방범",
      "numberofcam": 1,
      "dataduration": 30,
      "setDate": "Apr-17",
      "managecontact": "02-450-7154",
      "latitude": 37.52803,
      "longitude": 127.08051
    },
    {
      "managename": "서울특별시광진구청",
      "Address1": "서울특별시광진구자양로3길49 (자양동)",
      "purpose": "생활방범",
      "numberofcam": 1,
      "dataduration": 30,
      "setDate": "Apr-17",
      "managecontact": "02-450-7154",
      "latitude": 37.52943,
      "longitude": 127.08399
    },
    {
      "managename": "서울특별시광진구청",
      "Address1": "서울특별시광진구자양로3길39-3 (자양동)",
      "purpose": "생활방범",
      "numberofcam": 1,
      "dataduration": 30,
      "setDate": "Apr-17",
      "managecontact": "02-450-7154",
      "latitude": 37.5299438,
      "longitude": 127.084612
    },
    {
      "managename": "서울특별시광진구청",
      "Address1": "서울특별시광진구자양로3가길36 (자양동)",
      "purpose": "생활방범",
      "numberofcam": 1,
      "dataduration": 30,
      "setDate": "Apr-17",
      "managecontact": "02-450-7154",
      "latitude": 37.52863,
      "longitude": 127.08493
    },
    {
      "managename": "서울특별시광진구청",
      "Address1": "서울특별시광진구자양로3가길37 (자양동)",
      "purpose": "생활방범",
      "numberofcam": 1,
      "dataduration": 30,
      "setDate": "Apr-17",
      "managecontact": "02-450-7154",
      "latitude": 37.53621,
      "longitude": 127.08452
    },
    {
      "managename": "서울특별시광진구청",
      "Address1": "서울특별시광진구뚝섬로60길6 (자양동)",
      "purpose": "생활방범",
      "numberofcam": 1,
      "dataduration": 30,
      "setDate": "Apr-17",
      "managecontact": "02-450-7154",
      "latitude": 37.53255,
      "longitude": 127.08643
    },
    {
      "managename": "서울특별시광진구청",
      "Address1": "서울특별시광진구자양로4길12-1 (자양동)",
      "purpose": "생활방범",
      "numberofcam": 1,
      "dataduration": 30,
      "setDate": "Apr-17",
      "managecontact": "02-450-7154",
      "latitude": 37.53139,
      "longitude": 127.08698
    },
    {
      "managename": "서울특별시광진구청",
      "Address1": "서울특별시광진구자양로2길29 (자양동, 행운빌라)",
      "purpose": "생활방범",
      "numberofcam": 1,
      "dataduration": 30,
      "setDate": "Apr-17",
      "managecontact": "02-450-7154",
      "latitude": 37.5315287,
      "longitude": 127.079329
    },
    {
      "managename": "서울특별시광진구청",
      "Address1": "서울특별시광진구자양로4나길31 (자양동)",
      "purpose": "생활방범",
      "numberofcam": 1,
      "dataduration": 30,
      "setDate": "Apr-17",
      "managecontact": "02-450-7154",
      "latitude": 37.53046,
      "longitude": 127.08792
    },
    {
      "managename": "서울특별시광진구청",
      "Address1": "서울특별시광진구자양번영로11길4-9 (자양동)",
      "purpose": "생활방범",
      "numberofcam": 1,
      "dataduration": 30,
      "setDate": "Apr-17",
      "managecontact": "02-450-7154",
      "latitude": 37.53745,
      "longitude": 127.07657
    },
    {
      "managename": "서울특별시광진구청",
      "Address1": "서울특별시광진구자양번영로11길29",
      "purpose": "생활방범",
      "numberofcam": 1,
      "dataduration": 30,
      "setDate": "Apr-17",
      "managecontact": "02-450-7154",
      "latitude": 37.53729,
      "longitude": 127.07501
    },
    {
      "managename": "서울특별시광진구청",
      "Address1": "서울특별시광진구아차산로288 (자양동)",
      "purpose": "생활방범",
      "numberofcam": 1,
      "dataduration": 30,
      "setDate": "Apr-17",
      "managecontact": "02-450-7154",
      "latitude": 37.53839,
      "longitude": 127.07489
    },
    {
      "managename": "서울특별시광진구청",
      "Address1": "서울특별시광진구자양번영로11길37-14 (자양동)",
      "purpose": "생활방범",
      "numberofcam": 1,
      "dataduration": 30,
      "setDate": "Apr-17",
      "managecontact": "02-450-7154",
      "latitude": 37.536949,
      "longitude": 127.074358
    },
    {
      "managename": "서울특별시광진구청",
      "Address1": "서울특별시광진구자양번영로9길6-7 (자양동)",
      "purpose": "생활방범",
      "numberofcam": 1,
      "dataduration": 30,
      "setDate": "Apr-17",
      "managecontact": "02-450-7154",
      "latitude": 37.5364726,
      "longitude": 127.0762383
    },
    {
      "managename": "서울특별시광진구청",
      "Address1": "서울특별시광진구자양번영로7길12-7 (자양동)",
      "purpose": "생활방범",
      "numberofcam": 1,
      "dataduration": 30,
      "setDate": "Apr-17",
      "managecontact": "02-450-7154",
      "latitude": 37.53612,
      "longitude": 127.07571
    },
    {
      "managename": "서울특별시광진구청",
      "Address1": "서울특별시광진구자양번영로7길15 (자양동)",
      "purpose": "생활방범",
      "numberofcam": 1,
      "dataduration": 30,
      "setDate": "Apr-17",
      "managecontact": "02-450-7154",
      "latitude": 37.53569,
      "longitude": 127.07541
    },
    {
      "managename": "서울특별시광진구청",
      "Address1": "서울특별시광진구아차산로38길5-16 (자양동)",
      "purpose": "생활방범",
      "numberofcam": 1,
      "dataduration": 30,
      "setDate": "Apr-17",
      "managecontact": "02-450-7154",
      "latitude": 37.5380893,
      "longitude": 127.07526
    },
    {
      "managename": "서울특별시광진구청",
      "Address1": "서울특별시광진구뚝섬로36가길43 (자양동, 장경로얄빌라)",
      "purpose": "생활방범",
      "numberofcam": 1,
      "dataduration": 30,
      "setDate": "Apr-17",
      "managecontact": "02-450-7154",
      "latitude": 37.55936,
      "longitude": 127.0871
    },
    {
      "managename": "서울특별시광진구청",
      "Address1": "서울특별시광진구뚝섬로36길49-8 (자양동)",
      "purpose": "생활방범",
      "numberofcam": 1,
      "dataduration": 30,
      "setDate": "Apr-17",
      "managecontact": "02-450-7154",
      "latitude": 37.5320123,
      "longitude": 127.070725
    },
    {
      "managename": "서울특별시광진구청",
      "Address1": "서울특별시광진구능동로8길28 (자양동)",
      "purpose": "생활방범",
      "numberofcam": 1,
      "dataduration": 30,
      "setDate": "Apr-17",
      "managecontact": "02-450-7154",
      "latitude": 37.5362226,
      "longitude": 127.070686
    },
    {
      "managename": "서울특별시광진구청",
      "Address1": "서울특별시광진구능동로4길51 (자양동, 대종리버빌)",
      "purpose": "생활방범",
      "numberofcam": 1,
      "dataduration": 30,
      "setDate": "Apr-17",
      "managecontact": "02-450-7154",
      "latitude": 37.53229,
      "longitude": 127.07008
    },
    {
      "managename": "서울특별시광진구청",
      "Address1": "서울특별시광진구뚝섬로36길15 (자양동)",
      "purpose": "생활방범",
      "numberofcam": 1,
      "dataduration": 30,
      "setDate": "Apr-17",
      "managecontact": "02-450-7154",
      "latitude": 37.53372,
      "longitude": 127.07138
    },
    {
      "managename": "서울특별시광진구청",
      "Address1": "서울특별시광진구자양번영로5길16 (자양동)",
      "purpose": "생활방범",
      "numberofcam": 1,
      "dataduration": 30,
      "setDate": "Apr-17",
      "managecontact": "02-450-7154",
      "latitude": 37.5325865,
      "longitude": 127.074606
    },
    {
      "managename": "서울특별시광진구청",
      "Address1": "서울특별시광진구자양번영로3길16 (자양동)",
      "purpose": "생활방범",
      "numberofcam": 1,
      "dataduration": 30,
      "setDate": "Apr-17",
      "managecontact": "02-450-7154",
      "latitude": 37.53199,
      "longitude": 127.07435
    },
    {
      "managename": "서울특별시광진구청",
      "Address1": "서울특별시광진구자양번영로1길27 (자양동)",
      "purpose": "생활방범",
      "numberofcam": 1,
      "dataduration": 30,
      "setDate": "Apr-17",
      "managecontact": "02-450-7154",
      "latitude": 37.5307,
      "longitude": 127.07332
    },
    {
      "managename": "서울특별시광진구청",
      "Address1": "서울특별시광진구자양번영로3나길40 (자양동, 현대아트빌라)",
      "purpose": "생활방범",
      "numberofcam": 1,
      "dataduration": 30,
      "setDate": "Apr-17",
      "managecontact": "02-450-7154",
      "latitude": 37.53019,
      "longitude": 127.07314
    },
    {
      "managename": "서울특별시광진구청",
      "Address1": "서울특별시광진구동일로10길42 (자양동, 노유아트빌)",
      "purpose": "생활방범",
      "numberofcam": 1,
      "dataduration": 30,
      "setDate": "Apr-17",
      "managecontact": "02-450-7154",
      "latitude": 37.53754,
      "longitude": 127.06391
    },
    {
      "managename": "서울특별시광진구청",
      "Address1": "서울특별시광진구뚝섬로491 (자양동)",
      "purpose": "생활방범",
      "numberofcam": 1,
      "dataduration": 30,
      "setDate": "Apr-17",
      "managecontact": "02-450-7154",
      "latitude": 37.5364943,
      "longitude": 127.064883
    },
    {
      "managename": "서울특별시광진구청",
      "Address1": "서울특별시광진구동일로4길68-4 (자양동)",
      "purpose": "생활방범",
      "numberofcam": 1,
      "dataduration": 30,
      "setDate": "Apr-17",
      "managecontact": "02-450-7154",
      "latitude": 37.53428,
      "longitude": 127.06564
    },
    {
      "managename": "서울특별시광진구청",
      "Address1": "서울특별시광진구뚝섬로24길27 (자양동)",
      "purpose": "생활방범",
      "numberofcam": 1,
      "dataduration": 30,
      "setDate": "Apr-17",
      "managecontact": "02-450-7154",
      "latitude": 37.53526,
      "longitude": 127.06329
    },
    {
      "managename": "서울특별시광진구청",
      "Address1": "서울특별시광진구자양강변길73 (자양동)",
      "purpose": "생활방범",
      "numberofcam": 1,
      "dataduration": 30,
      "setDate": "Apr-17",
      "managecontact": "02-450-7154",
      "latitude": 37.5335768,
      "longitude": 127.063476
    },
    {
      "managename": "서울특별시광진구청",
      "Address1": "서울특별시광진구능동로3라길16 (자양동)",
      "purpose": "생활방범",
      "numberofcam": 1,
      "dataduration": 30,
      "setDate": "Apr-17",
      "managecontact": "02-450-7154",
      "latitude": 37.5346589,
      "longitude": 127.065022
    },
    {
      "managename": "서울특별시광진구청",
      "Address1": "서울특별시광진구능동로3가길12 (자양동)",
      "purpose": "생활방범",
      "numberofcam": 1,
      "dataduration": 30,
      "setDate": "Apr-17",
      "managecontact": "02-450-7154",
      "latitude": 37.53342,
      "longitude": 127.06565
    },
    {
      "managename": "서울특별시광진구청",
      "Address1": "서울특별시광진구아차산로34길43",
      "purpose": "생활방범",
      "numberofcam": 1,
      "dataduration": 30,
      "setDate": "Apr-17",
      "managecontact": "02-450-7154",
      "latitude": 37.53814,
      "longitude": 127.06887
    },
    {
      "managename": "서울특별시광진구청",
      "Address1": "서울특별시광진구아차산로32길21 (자양동)",
      "purpose": "생활방범",
      "numberofcam": 1,
      "dataduration": 30,
      "setDate": "Apr-17",
      "managecontact": "02-450-7154",
      "latitude": 37.53866,
      "longitude": 127.06824
    },
    {
      "managename": "서울특별시광진구청",
      "Address1": "서울특별시광진구아차산로30길39 (자양동)",
      "purpose": "생활방범",
      "numberofcam": 1,
      "dataduration": 30,
      "setDate": "Apr-17",
      "managecontact": "02-450-7154",
      "latitude": 37.539001,
      "longitude": 127.067497
    },
    {
      "managename": "서울특별시광진구청",
      "Address1": "서울특별시광진구동일로18길44 (자양동)",
      "purpose": "생활방범",
      "numberofcam": 1,
      "dataduration": 30,
      "setDate": "Apr-17",
      "managecontact": "02-450-7154",
      "latitude": 37.53928,
      "longitude": 127.06517
    },
    {
      "managename": "서울특별시광진구청",
      "Address1": "서울특별시광진구아차산로200 (자양동)",
      "purpose": "생활방범",
      "numberofcam": 1,
      "dataduration": 30,
      "setDate": "Apr-17",
      "managecontact": "02-450-7154",
      "latitude": 37.54124,
      "longitude": 127.06585
    },
    {
      "managename": "서울특별시광진구청",
      "Address1": "서울특별시광진구아차산로22길27 (자양동, 태언빌리지)",
      "purpose": "생활방범",
      "numberofcam": 1,
      "dataduration": 30,
      "setDate": "Apr-17",
      "managecontact": "02-450-7154",
      "latitude": 37.5406,
      "longitude": 127.06403
    },
    {
      "managename": "서울특별시광진구청",
      "Address1": "서울특별시광진구자양강변길19 (자양동)",
      "purpose": "생활방범",
      "numberofcam": 1,
      "dataduration": 30,
      "setDate": "Apr-17",
      "managecontact": "02-450-7154",
      "latitude": 37.53442,
      "longitude": 127.06075
    },
    {
      "managename": "서울특별시광진구청",
      "Address1": "서울특별시광진구뚝섬로22가길22 (자양동)",
      "purpose": "생활방범",
      "numberofcam": 1,
      "dataduration": 30,
      "setDate": "Apr-17",
      "managecontact": "02-450-7154",
      "latitude": 37.5353397,
      "longitude": 127.062479
    },
    {
      "managename": "서울특별시광진구청",
      "Address1": "서울특별시광진구동일로4가길9-2 (자양동)",
      "purpose": "생활방범",
      "numberofcam": 1,
      "dataduration": 30,
      "setDate": "Apr-17",
      "managecontact": "02-450-7154",
      "latitude": 37.535775,
      "longitude": 127.062775
    },
    {
      "managename": "서울특별시광진구청",
      "Address1": "서울특별시광진구동일로34-11 (자양동)",
      "purpose": "생활방범",
      "numberofcam": 1,
      "dataduration": 30,
      "setDate": "Apr-17",
      "managecontact": "02-450-7154",
      "latitude": 37.56714,
      "longitude": 127.08334
    },
    {
      "managename": "서울특별시광진구청",
      "Address1": "서울특별시광진구동일로6길21 (자양동)",
      "purpose": "생활방범",
      "numberofcam": 1,
      "dataduration": 30,
      "setDate": "Apr-17",
      "managecontact": "02-450-7154",
      "latitude": 37.53801,
      "longitude": 127.06287
    },
    {
      "managename": "서울특별시광진구청",
      "Address1": "서울특별시광진구동일로10길5 (자양동)",
      "purpose": "생활방범",
      "numberofcam": 1,
      "dataduration": 30,
      "setDate": "Apr-17",
      "managecontact": "02-450-7154",
      "latitude": 37.53894,
      "longitude": 127.06266
    },
    {
      "managename": "서울특별시광진구청",
      "Address1": "서울특별시광진구능동로9길16-2 (자양동)",
      "purpose": "생활방범",
      "numberofcam": 1,
      "dataduration": 30,
      "setDate": "Apr-17",
      "managecontact": "02-450-7154",
      "latitude": 37.5376561,
      "longitude": 127.068166
    },
    {
      "managename": "서울특별시광진구청",
      "Address1": "서울특별시광진구뚝섬로32길17 (자양동)",
      "purpose": "생활방범",
      "numberofcam": 1,
      "dataduration": 30,
      "setDate": "Apr-17",
      "managecontact": "02-450-7154",
      "latitude": 37.5346375,
      "longitude": 127.0671592
    },
    {
      "managename": "서울특별시광진구청",
      "Address1": "서울특별시광진구뚝섬로31길27 (자양동, 경동그린맨션)",
      "purpose": "생활방범",
      "numberofcam": 1,
      "dataduration": 30,
      "setDate": "Apr-17",
      "managecontact": "02-450-7154",
      "latitude": 37.5369422,
      "longitude": 127.06788
    },
    {
      "managename": "서울특별시광진구청",
      "Address1": "서울특별시광진구뚝섬로30길15 (자양동)",
      "purpose": "생활방범",
      "numberofcam": 1,
      "dataduration": 30,
      "setDate": "Apr-17",
      "managecontact": "02-450-7154",
      "latitude": 37.5355082,
      "longitude": 127.0661133
    },
    {
      "managename": "서울특별시광진구청",
      "Address1": "서울특별시광진구능동로3길61-8 (자양동)",
      "purpose": "생활방범",
      "numberofcam": 1,
      "dataduration": 30,
      "setDate": "Apr-17",
      "managecontact": "02-450-7154",
      "latitude": 37.53398,
      "longitude": 127.06372
    },
    {
      "managename": "서울특별시광진구청",
      "Address1": "서울특별시광진구동일로12길20 (자양동)",
      "purpose": "생활방범",
      "numberofcam": 1,
      "dataduration": 30,
      "setDate": "Apr-17",
      "managecontact": "02-450-7154",
      "latitude": 37.53942,
      "longitude": 127.06346
    },
    {
      "managename": "서울특별시광진구청",
      "Address1": "서울특별시광진구동일로10길25 (자양동)",
      "purpose": "생활방범",
      "numberofcam": 1,
      "dataduration": 30,
      "setDate": "Apr-17",
      "managecontact": "02-450-7154",
      "latitude": 37.5383,
      "longitude": 127.06344
    },
    {
      "managename": "서울특별시광진구청",
      "Address1": "서울특별시광진구동일로18가길13 (자양동)",
      "purpose": "생활방범",
      "numberofcam": 1,
      "dataduration": 30,
      "setDate": "Apr-17",
      "managecontact": "02-450-7154",
      "latitude": 37.53907,
      "longitude": 127.06463
    },
    {
      "managename": "서울특별시광진구청",
      "Address1": "서울특별시광진구동일로10나길18 (자양동)",
      "purpose": "생활방범",
      "numberofcam": 2,
      "dataduration": 30,
      "setDate": "Apr-17",
      "managecontact": "02-450-7154",
      "latitude": 37.53818,
      "longitude": 127.06441
    },
    {
      "managename": "서울특별시광진구청",
      "Address1": "서울특별시광진구동일로18나길24 (자양동)",
      "purpose": "생활방범",
      "numberofcam": 1,
      "dataduration": 30,
      "setDate": "Apr-17",
      "managecontact": "02-450-7154",
      "latitude": 37.56391,
      "longitude": 127.08373
    },
    {
      "managename": "서울특별시광진구청",
      "Address1": "서울특별시광진구뚝섬로23가길11 (자양동)",
      "purpose": "생활방범",
      "numberofcam": 1,
      "dataduration": 30,
      "setDate": "Apr-17",
      "managecontact": "02-450-7154",
      "latitude": 37.53786,
      "longitude": 127.06532
    },
    {
      "managename": "서울특별시광진구청",
      "Address1": "서울특별시광진구능동로10 (자양동)",
      "purpose": "생활방범",
      "numberofcam": 1,
      "dataduration": 30,
      "setDate": "Apr-17",
      "managecontact": "02-450-7154",
      "latitude": 37.5322091,
      "longitude": 127.0672744
    },
    {
      "managename": "서울특별시광진구청",
      "Address1": "서울특별시광진구능동로10 (자양동)",
      "purpose": "생활방범",
      "numberofcam": 1,
      "dataduration": 30,
      "setDate": "Apr-17",
      "managecontact": "02-450-7154",
      "latitude": 37.5319,
      "longitude": 127.06698
    },
    {
      "managename": "서울특별시광진구청",
      "Address1": "서울특별시광진구능동로10 (자양동)",
      "purpose": "생활방범",
      "numberofcam": 1,
      "dataduration": 30,
      "setDate": "Apr-17",
      "managecontact": "02-450-7154",
      "latitude": 37.531731,
      "longitude": 127.066893
    },
    {
      "managename": "서울특별시광진구청",
      "Address1": "서울특별시광진구뚝섬로57길13 (자양동)",
      "purpose": "생활방범",
      "numberofcam": 1,
      "dataduration": 30,
      "setDate": "Apr-17",
      "managecontact": "02-450-7154",
      "latitude": 37.53232,
      "longitude": 127.08353
    },
    {
      "managename": "서울특별시광진구청",
      "Address1": "서울특별시광진구긴고랑로14길33 (중곡동, 선화빌라8차)",
      "purpose": "생활방범",
      "numberofcam": 1,
      "dataduration": 30,
      "setDate": "Apr-17",
      "managecontact": "02-450-7154",
      "latitude": 37.5610934,
      "longitude": 127.080972
    },
    {
      "managename": "서울특별시광진구청",
      "Address1": "서울특별시광진구긴고랑로5길11 (중곡동)",
      "purpose": "생활방범",
      "numberofcam": 1,
      "dataduration": 30,
      "setDate": "Apr-17",
      "managecontact": "02-450-7154",
      "latitude": 37.56543,
      "longitude": 127.07968
    },
    {
      "managename": "서울특별시광진구청",
      "Address1": "서울특별시광진구긴고랑로1길11 (중곡동)",
      "purpose": "생활방범",
      "numberofcam": 1,
      "dataduration": 30,
      "setDate": "Apr-17",
      "managecontact": "02-450-7154",
      "latitude": 37.5645782,
      "longitude": 127.0774207
    },
    {
      "managename": "서울특별시광진구청",
      "Address1": "서울특별시광진구긴고랑로7길11 (중곡동)",
      "purpose": "생활방범",
      "numberofcam": 1,
      "dataduration": 30,
      "setDate": "Apr-17",
      "managecontact": "02-450-7154",
      "latitude": 37.56398,
      "longitude": 127.07929
    },
    {
      "managename": "서울특별시광진구청",
      "Address1": "서울특별시광진구동일로70길22 (중곡동)",
      "purpose": "생활방범",
      "numberofcam": 1,
      "dataduration": 30,
      "setDate": "Apr-17",
      "managecontact": "02-450-7154",
      "latitude": 37.56446,
      "longitude": 127.07801
    },
    {
      "managename": "서울특별시광진구청",
      "Address1": "서울특별시광진구긴고랑로14길8 (중곡동)",
      "purpose": "생활방범",
      "numberofcam": 1,
      "dataduration": 30,
      "setDate": "Apr-17",
      "managecontact": "02-450-7154",
      "latitude": 37.56218,
      "longitude": 127.08129
    },
    {
      "managename": "서울특별시광진구청",
      "Address1": "서울특별시광진구긴고랑로12길12 (중곡동)",
      "purpose": "생활방범",
      "numberofcam": 3,
      "dataduration": 30,
      "setDate": "Apr-17",
      "managecontact": "02-450-7154",
      "latitude": 37.56222,
      "longitude": 127.08059
    },
    {
      "managename": "서울특별시광진구청",
      "Address1": "서울특별시광진구능동로43길38 (중곡동)",
      "purpose": "생활방범",
      "numberofcam": 1,
      "dataduration": 30,
      "setDate": "Apr-17",
      "managecontact": "02-450-7154",
      "latitude": 37.56177,
      "longitude": 127.07967
    },
    {
      "managename": "서울특별시광진구청",
      "Address1": "서울특별시광진구면목로93 (중곡동)",
      "purpose": "생활방범",
      "numberofcam": 1,
      "dataduration": 30,
      "setDate": "Apr-17",
      "managecontact": "02-450-7154",
      "latitude": 37.562032,
      "longitude": 127.078902
    },
    {
      "managename": "서울특별시광진구청",
      "Address1": "서울특별시광진구긴고랑로6길9 (중곡동)",
      "purpose": "생활방범",
      "numberofcam": 1,
      "dataduration": 30,
      "setDate": "Apr-17",
      "managecontact": "02-450-7154",
      "latitude": 37.5631277,
      "longitude": 127.078329
    },
    {
      "managename": "서울특별시광진구청",
      "Address1": "서울특별시광진구긴고랑로4길30 (중곡동)",
      "purpose": "생활방범",
      "numberofcam": 1,
      "dataduration": 30,
      "setDate": "Apr-17",
      "managecontact": "02-450-7154",
      "latitude": 37.5627,
      "longitude": 127.07711
    },
    {
      "managename": "서울특별시광진구청",
      "Address1": "서울특별시광진구동일로66길9 (중곡동)",
      "purpose": "생활방범",
      "numberofcam": 1,
      "dataduration": 30,
      "setDate": "Apr-17",
      "managecontact": "02-450-7154",
      "latitude": 37.5617593,
      "longitude": 127.075841
    },
    {
      "managename": "서울특별시광진구청",
      "Address1": "서울특별시광진구긴고랑로12길49 (중곡동)",
      "purpose": "생활방범",
      "numberofcam": 1,
      "dataduration": 30,
      "setDate": "Apr-17",
      "managecontact": "02-450-7154",
      "latitude": 37.560675,
      "longitude": 127.080038
    },
    {
      "managename": "서울특별시광진구청",
      "Address1": "서울특별시광진구천호대로101길11 (중곡동)",
      "purpose": "생활방범",
      "numberofcam": 1,
      "dataduration": 30,
      "setDate": "Apr-17",
      "managecontact": "02-450-7154",
      "latitude": 37.5597393,
      "longitude": 127.074677
    },
    {
      "managename": "서울특별시광진구청",
      "Address1": "서울특별시광진구긴고랑로8길60 (중곡동)",
      "purpose": "생활방범",
      "numberofcam": 1,
      "dataduration": 30,
      "setDate": "Apr-17",
      "managecontact": "02-450-7154",
      "latitude": 37.56095,
      "longitude": 127.07764
    },
    {
      "managename": "서울특별시광진구청",
      "Address1": "서울특별시광진구긴고랑로8길90 (중곡동)",
      "purpose": "생활방범",
      "numberofcam": 1,
      "dataduration": 30,
      "setDate": "Apr-17",
      "managecontact": "02-450-7154",
      "latitude": 37.55968,
      "longitude": 127.07691
    },
    {
      "managename": "서울특별시광진구청",
      "Address1": "서울특별시광진구동일로62길37 (중곡동)",
      "purpose": "생활방범",
      "numberofcam": 1,
      "dataduration": 30,
      "setDate": "Apr-17",
      "managecontact": "02-450-7154",
      "latitude": 37.55945,
      "longitude": 127.07627
    },
    {
      "managename": "서울특별시광진구청",
      "Address1": "서울특별시광진구면목로53 (중곡동)",
      "purpose": "생활방범",
      "numberofcam": 1,
      "dataduration": 30,
      "setDate": "Apr-17",
      "managecontact": "02-450-7154",
      "latitude": 37.5588,
      "longitude": 127.07713
    },
    {
      "managename": "서울특별시광진구청",
      "Address1": "서울특별시광진구면목로74 (중곡동)",
      "purpose": "생활방범",
      "numberofcam": 1,
      "dataduration": 30,
      "setDate": "Apr-17",
      "managecontact": "02-450-7154",
      "latitude": 37.56014,
      "longitude": 127.07911
    },
    {
      "managename": "서울특별시광진구청",
      "Address1": "서울특별시광진구긴고랑로14길63 (중곡동, 삼보글로벌아파트)",
      "purpose": "생활방범",
      "numberofcam": 1,
      "dataduration": 30,
      "setDate": "Apr-17",
      "managecontact": "02-450-7154",
      "latitude": 37.53018,
      "longitude": 127.07317
    },
    {
      "managename": "서울특별시광진구청",
      "Address1": "서울특별시광진구천호대로107길22 (중곡동, 광남캐스빌)",
      "purpose": "생활방범",
      "numberofcam": 1,
      "dataduration": 30,
      "setDate": "Apr-17",
      "managecontact": "02-450-7154",
      "latitude": 37.55871,
      "longitude": 127.07885
    },
    {
      "managename": "서울특별시광진구청",
      "Address1": "서울특별시광진구천호대로107길8 (중곡동, 능동빌딩)",
      "purpose": "생활방범",
      "numberofcam": 1,
      "dataduration": 30,
      "setDate": "Apr-17",
      "managecontact": "02-450-7154",
      "latitude": 37.55821,
      "longitude": 127.07865
    },
    {
      "managename": "서울특별시광진구청",
      "Address1": "서울특별시광진구능동로47길35 (중곡동)",
      "purpose": "생활방범",
      "numberofcam": 1,
      "dataduration": 30,
      "setDate": "Apr-17",
      "managecontact": "02-450-7154",
      "latitude": 37.5635883,
      "longitude": 127.081143
    },
    {
      "managename": "서울특별시광진구청",
      "Address1": "서울특별시광진구능동로47길35 (중곡동)",
      "purpose": "생활방범",
      "numberofcam": 1,
      "dataduration": 30,
      "setDate": "Apr-17",
      "managecontact": "02-450-7154",
      "latitude": 37.563588,
      "longitude": 127.081143
    },
    {
      "managename": "서울특별시광진구청",
      "Address1": "서울특별시광진구능동로47길35 (중곡동)",
      "purpose": "생활방범",
      "numberofcam": 1,
      "dataduration": 30,
      "setDate": "Apr-17",
      "managecontact": "02-450-7154",
      "latitude": 37.5639043,
      "longitude": 127.081315
    },
    {
      "managename": "서울특별시광진구청",
      "Address1": "서울특별시광진구능동로50길8 (중곡동)",
      "purpose": "생활방범",
      "numberofcam": 1,
      "dataduration": 30,
      "setDate": "Apr-17",
      "managecontact": "02-450-7154",
      "latitude": 37.56395,
      "longitude": 127.08371
    },
    {
      "managename": "서울특별시광진구청",
      "Address1": "서울특별시광진구능동로48가길36 (중곡동)",
      "purpose": "생활방범",
      "numberofcam": 1,
      "dataduration": 30,
      "setDate": "Apr-17",
      "managecontact": "02-450-7154",
      "latitude": 37.5633148,
      "longitude": 127.0858088
    },
    {
      "managename": "서울특별시광진구청",
      "Address1": "서울특별시광진구긴고랑로29길47 (중곡동)",
      "purpose": "생활방범",
      "numberofcam": 1,
      "dataduration": 30,
      "setDate": "Apr-17",
      "managecontact": "02-450-7154",
      "latitude": 37.56211,
      "longitude": 127.08624
    },
    {
      "managename": "서울특별시광진구청",
      "Address1": "서울특별시광진구용마산로21길77 (중곡동)",
      "purpose": "생활방범",
      "numberofcam": 1,
      "dataduration": 30,
      "setDate": "Apr-17",
      "managecontact": "02-450-7154",
      "latitude": 37.5614236,
      "longitude": 127.0844021
    },
    {
      "managename": "서울특별시광진구청",
      "Address1": "서울특별시광진구용마산로3길13 (중곡동)",
      "purpose": "생활방범",
      "numberofcam": 1,
      "dataduration": 30,
      "setDate": "Apr-17",
      "managecontact": "02-450-7154",
      "latitude": 37.55617,
      "longitude": 127.08718
    },
    {
      "managename": "서울특별시광진구청",
      "Address1": "서울특별시광진구천호대로125길35-17 (중곡동)",
      "purpose": "생활방범",
      "numberofcam": 1,
      "dataduration": 30,
      "setDate": "Apr-17",
      "managecontact": "02-450-7154",
      "latitude": 37.555348,
      "longitude": 127.087321
    },
    {
      "managename": "서울특별시광진구청",
      "Address1": "서울특별시광진구용마산로1길22 (중곡동)",
      "purpose": "생활방범",
      "numberofcam": 1,
      "dataduration": 30,
      "setDate": "Apr-17",
      "managecontact": "02-450-7154",
      "latitude": 37.55507,
      "longitude": 127.08732
    },
    {
      "managename": "서울특별시광진구청",
      "Address1": "서울특별시광진구천호대로121길39 (중곡동)",
      "purpose": "생활방범",
      "numberofcam": 1,
      "dataduration": 30,
      "setDate": "Apr-17",
      "managecontact": "02-450-7154",
      "latitude": 37.55691,
      "longitude": 127.08624
    },
    {
      "managename": "서울특별시광진구청",
      "Address1": "서울특별시광진구긴고랑로110 (중곡동)",
      "purpose": "생활방범",
      "numberofcam": 1,
      "dataduration": 30,
      "setDate": "Apr-17",
      "managecontact": "02-450-7154",
      "latitude": 37.55941,
      "longitude": 127.08715
    },
    {
      "managename": "서울특별시광진구청",
      "Address1": "서울특별시광진구천호대로119길89 (중곡동)",
      "purpose": "생활방범",
      "numberofcam": 1,
      "dataduration": 30,
      "setDate": "Apr-17",
      "managecontact": "02-450-7154",
      "latitude": 37.55883,
      "longitude": 127.08558
    },
    {
      "managename": "서울특별시광진구청",
      "Address1": "서울특별시광진구용마산로3길38 (중곡동)",
      "purpose": "생활방범",
      "numberofcam": 1,
      "dataduration": 30,
      "setDate": "Apr-17",
      "managecontact": "02-450-7154",
      "latitude": 37.5561594,
      "longitude": 127.085995
    },
    {
      "managename": "서울특별시광진구청",
      "Address1": "서울특별시광진구용마산로1길91 (중곡동, 열린연립주택)",
      "purpose": "생활방범",
      "numberofcam": 1,
      "dataduration": 30,
      "setDate": "Apr-17",
      "managecontact": "02-450-7154",
      "latitude": 37.55634,
      "longitude": 127.08355
    },
    {
      "managename": "서울특별시광진구청",
      "Address1": "서울특별시광진구긴고랑로27길26 (중곡동)",
      "purpose": "생활방범",
      "numberofcam": 1,
      "dataduration": 30,
      "setDate": "Apr-17",
      "managecontact": "02-450-7154",
      "latitude": 37.561364,
      "longitude": 127.086262
    },
    {
      "managename": "서울특별시광진구청",
      "Address1": "서울특별시광진구긴고랑로31길28 (중곡동)",
      "purpose": "생활방범",
      "numberofcam": 1,
      "dataduration": 30,
      "setDate": "Apr-17",
      "managecontact": "02-450-7154",
      "latitude": 37.5610626,
      "longitude": 127.087051
    },
    {
      "managename": "서울특별시광진구청",
      "Address1": "서울특별시광진구동일로374 (중곡동)",
      "purpose": "생활방범",
      "numberofcam": 1,
      "dataduration": 30,
      "setDate": "Apr-17",
      "managecontact": "02-450-7154",
      "latitude": 37.5642302,
      "longitude": 127.0762658
    },
    {
      "managename": "서울특별시광진구청",
      "Address1": "서울특별시광진구천호대로109길13 (중곡동)",
      "purpose": "생활방범",
      "numberofcam": 1,
      "dataduration": 30,
      "setDate": "Apr-17",
      "managecontact": "02-450-7154",
      "latitude": 37.55753,
      "longitude": 127.08097
    },
    {
      "managename": "서울특별시광진구청",
      "Address1": "서울특별시광진구천호대로109길53 (중곡동)",
      "purpose": "생활방범",
      "numberofcam": 1,
      "dataduration": 30,
      "setDate": "Apr-17",
      "managecontact": "02-450-7154",
      "latitude": 37.5591607,
      "longitude": 127.081814
    },
    {
      "managename": "서울특별시광진구청",
      "Address1": "서울특별시광진구긴고랑로15길15 (중곡동)",
      "purpose": "생활방범",
      "numberofcam": 1,
      "dataduration": 30,
      "setDate": "Apr-17",
      "managecontact": "02-450-7154",
      "latitude": 37.56277,
      "longitude": 127.08323
    },
    {
      "managename": "서울특별시광진구청",
      "Address1": "서울특별시광진구긴고랑로19길34-4 (중곡동)",
      "purpose": "생활방범",
      "numberofcam": 1,
      "dataduration": 30,
      "setDate": "Apr-17",
      "managecontact": "02-450-7154",
      "latitude": 37.56274,
      "longitude": 127.08496
    },
    {
      "managename": "서울특별시광진구청",
      "Address1": "서울특별시광진구용마산로21길65 (중곡동)",
      "purpose": "생활방범",
      "numberofcam": 4,
      "dataduration": 30,
      "setDate": "Apr-17",
      "managecontact": "02-450-7154",
      "latitude": 37.56192,
      "longitude": 127.08507
    },
    {
      "managename": "서울특별시광진구청",
      "Address1": "서울특별시광진구능동로44길13 (중곡동)",
      "purpose": "생활방범",
      "numberofcam": 1,
      "dataduration": 30,
      "setDate": "Apr-17",
      "managecontact": "02-450-7154",
      "latitude": 37.56079,
      "longitude": 127.08241
    },
    {
      "managename": "서울특별시광진구청",
      "Address1": "서울특별시광진구긴고랑로16길9-9 (중곡동)",
      "purpose": "생활방범",
      "numberofcam": 1,
      "dataduration": 30,
      "setDate": "Apr-17",
      "managecontact": "02-450-7154",
      "latitude": 37.5612644,
      "longitude": 127.083241
    },
    {
      "managename": "서울특별시광진구청",
      "Address1": "서울특별시광진구용마산로134 (중곡동)",
      "purpose": "생활방범",
      "numberofcam": 1,
      "dataduration": 30,
      "setDate": "Apr-17",
      "managecontact": "02-450-7154",
      "latitude": 37.55992,
      "longitude": 127.0868
    },
    {
      "managename": "서울특별시광진구청",
      "Address1": "서울특별시광진구동일로76나길20 (중곡동)",
      "purpose": "생활방범",
      "numberofcam": 1,
      "dataduration": 30,
      "setDate": "Apr-17",
      "managecontact": "02-450-7154",
      "latitude": 37.53255,
      "longitude": 127.08647
    },
    {
      "managename": "서울특별시광진구청",
      "Address1": "서울특별시광진구능동로411 (중곡동)",
      "purpose": "생활방범",
      "numberofcam": 1,
      "dataduration": 30,
      "setDate": "Apr-17",
      "managecontact": "02-450-7154",
      "latitude": 37.5658527,
      "longitude": 127.084041
    },
    {
      "managename": "서울특별시광진구청",
      "Address1": "서울특별시광진구용마산로31길31 (중곡동)",
      "purpose": "생활방범",
      "numberofcam": 1,
      "dataduration": 30,
      "setDate": "Apr-17",
      "managecontact": "02-450-7154",
      "latitude": 37.5689931,
      "longitude": 127.084315
    },
    {
      "managename": "서울특별시광진구청",
      "Address1": "서울특별시광진구능동로53길24-9 (중곡동)",
      "purpose": "생활방범",
      "numberofcam": 1,
      "dataduration": 30,
      "setDate": "Apr-17",
      "managecontact": "02-450-7154",
      "latitude": 37.56714,
      "longitude": 127.08332
    },
    {
      "managename": "서울특별시광진구청",
      "Address1": "서울특별시광진구능동로53길30-12 (중곡동)",
      "purpose": "생활방범",
      "numberofcam": 1,
      "dataduration": 30,
      "setDate": "Apr-17",
      "managecontact": "02-450-7154",
      "latitude": 37.53349,
      "longitude": 127.08263
    },
    {
      "managename": "서울특별시광진구청",
      "Address1": "서울특별시광진구답십리로78길",
      "purpose": "생활방범",
      "numberofcam": 1,
      "dataduration": 30,
      "setDate": "Apr-17",
      "managecontact": "02-450-7154",
      "latitude": 37.56974,
      "longitude": 127.08129
    },
    {
      "managename": "서울특별시광진구청",
      "Address1": "서울특별시광진구동일로76길12 (중곡동)",
      "purpose": "생활방범",
      "numberofcam": 1,
      "dataduration": 30,
      "setDate": "Apr-17",
      "managecontact": "02-450-7154",
      "latitude": 37.5676,
      "longitude": 127.07938
    },
    {
      "managename": "서울특별시광진구청",
      "Address1": "서울특별시광진구면목로11길20 (중곡동)",
      "purpose": "생활방범",
      "numberofcam": 1,
      "dataduration": 30,
      "setDate": "Apr-17",
      "managecontact": "02-450-7154",
      "latitude": 37.5689931,
      "longitude": 127.084315
    },
    {
      "managename": "서울특별시광진구청",
      "Address1": "서울특별시광진구답십리로88길19 (중곡동)",
      "purpose": "생활방범",
      "numberofcam": 1,
      "dataduration": 30,
      "setDate": "Apr-17",
      "managecontact": "02-450-7154",
      "latitude": 37.5701379,
      "longitude": 127.085134
    },
    {
      "managename": "서울특별시광진구청",
      "Address1": "서울특별시광진구용마산로31길16 (중곡동)",
      "purpose": "생활방범",
      "numberofcam": 1,
      "dataduration": 30,
      "setDate": "Apr-17",
      "managecontact": "02-450-7154",
      "latitude": 37.56932,
      "longitude": 127.08522
    },
    {
      "managename": "서울특별시광진구청",
      "Address1": "서울특별시광진구면목로16길10 (중곡동, 금성빌라)",
      "purpose": "생활방범",
      "numberofcam": 1,
      "dataduration": 30,
      "setDate": "Apr-17",
      "managecontact": "02-450-7154",
      "latitude": 37.56949,
      "longitude": 127.08367
    },
    {
      "managename": "서울특별시광진구청",
      "Address1": "서울특별시광진구용마산로27길10 (중곡동)",
      "purpose": "생활방범",
      "numberofcam": 1,
      "dataduration": 30,
      "setDate": "Apr-17",
      "managecontact": "02-450-7154",
      "latitude": 37.56734,
      "longitude": 127.08581
    },
    {
      "managename": "서울특별시광진구청",
      "Address1": "서울특별시광진구용마산로29길25 (중곡동)",
      "purpose": "생활방범",
      "numberofcam": 1,
      "dataduration": 30,
      "setDate": "Apr-17",
      "managecontact": "02-450-7154",
      "latitude": 37.56711,
      "longitude": 127.08552
    },
    {
      "managename": "서울특별시광진구청",
      "Address1": "서울특별시광진구답십리로84길6 (중곡동)",
      "purpose": "생활방범",
      "numberofcam": 1,
      "dataduration": 30,
      "setDate": "Apr-17",
      "managecontact": "02-450-7154",
      "latitude": 37.571021,
      "longitude": 127.08393
    },
    {
      "managename": "서울특별시광진구청",
      "Address1": "서울특별시광진구답십리로370 (중곡동)",
      "purpose": "생활방범",
      "numberofcam": 1,
      "dataduration": 30,
      "setDate": "Apr-17",
      "managecontact": "02-450-7154",
      "latitude": 37.5714457,
      "longitude": 127.081569
    },
    {
      "managename": "서울특별시광진구청",
      "Address1": "서울특별시광진구답십리로82길18 (중곡동)",
      "purpose": "생활방범",
      "numberofcam": 1,
      "dataduration": 30,
      "setDate": "Apr-17",
      "managecontact": "02-450-7154",
      "latitude": 37.57059,
      "longitude": 127.08251
    },
    {
      "managename": "서울특별시광진구청",
      "Address1": "서울특별시광진구동일로78길20 (중곡동)",
      "purpose": "생활방범",
      "numberofcam": 1,
      "dataduration": 30,
      "setDate": "Apr-17",
      "managecontact": "02-450-7154",
      "latitude": 37.5691232,
      "longitude": 127.0805924
    },
    {
      "managename": "서울특별시광진구청",
      "Address1": "서울특별시광진구동일로76길51-22 (중곡동)",
      "purpose": "생활방범",
      "numberofcam": 1,
      "dataduration": 30,
      "setDate": "Apr-17",
      "managecontact": "02-450-7154",
      "latitude": 37.56816,
      "longitude": 127.08062
    },
    {
      "managename": "서울특별시광진구청",
      "Address1": "서울특별시광진구동일로76길49 (중곡동)",
      "purpose": "생활방범",
      "numberofcam": 1,
      "dataduration": 30,
      "setDate": "Apr-17",
      "managecontact": "02-450-7154",
      "latitude": 37.56806,
      "longitude": 127.08135
    },
    {
      "managename": "서울특별시광진구청",
      "Address1": "서울특별시광진구영화사로5길25 (중곡동)",
      "purpose": "생활방범",
      "numberofcam": 1,
      "dataduration": 30,
      "setDate": "Apr-17",
      "managecontact": "02-450-7154",
      "latitude": 37.5572871,
      "longitude": 127.092162
    },
    {
      "managename": "서울특별시광진구청",
      "Address1": "서울특별시광진구자양로45길89 (중곡동, 궁전빌)",
      "purpose": "생활방범",
      "numberofcam": 1,
      "dataduration": 30,
      "setDate": "Apr-17",
      "managecontact": "02-450-7154",
      "latitude": 37.55498,
      "longitude": 127.08979
    },
    {
      "managename": "서울특별시광진구청",
      "Address1": "서울특별시광진구용마산로22길10-10 (중곡동)",
      "purpose": "생활방범",
      "numberofcam": 1,
      "dataduration": 30,
      "setDate": "Apr-17",
      "managecontact": "02-450-7154",
      "latitude": 37.56314,
      "longitude": 127.08756
    },
    {
      "managename": "서울특별시광진구청",
      "Address1": "서울특별시광진구영화사로3가길9 (중곡동, 부흥파크빌라)",
      "purpose": "생활방범",
      "numberofcam": 1,
      "dataduration": 30,
      "setDate": "Apr-17",
      "managecontact": "02-450-7154",
      "latitude": 37.5578,
      "longitude": 127.09292
    },
    {
      "managename": "서울특별시광진구청",
      "Address1": "서울특별시광진구영화사로3가길25 (중곡동)",
      "purpose": "생활방범",
      "numberofcam": 1,
      "dataduration": 30,
      "setDate": "Apr-17",
      "managecontact": "02-450-7154",
      "latitude": 37.55742,
      "longitude": 127.09366
    },
    {
      "managename": "서울특별시광진구청",
      "Address1": "서울특별시광진구영화사로9가길61 (중곡동)",
      "purpose": "생활방범",
      "numberofcam": 1,
      "dataduration": 30,
      "setDate": "Apr-17",
      "managecontact": "02-450-7154",
      "latitude": 37.55749,
      "longitude": 127.09525
    },
    {
      "managename": "서울특별시광진구청",
      "Address1": "서울특별시광진구영화사로9길10 (중곡동, 트루빌)",
      "purpose": "생활방범",
      "numberofcam": 1,
      "dataduration": 30,
      "setDate": "Apr-17",
      "managecontact": "02-450-7154",
      "latitude": 37.5554271,
      "longitude": 127.093379
    },
    {
      "managename": "서울특별시광진구청",
      "Address1": "서울특별시광진구영화사로9길70-12 (중곡동)",
      "purpose": "생활방범",
      "numberofcam": 1,
      "dataduration": 30,
      "setDate": "Apr-17",
      "managecontact": "02-450-7154",
      "latitude": 37.55674,
      "longitude": 127.09441
    },
    {
      "managename": "서울특별시광진구청",
      "Address1": "서울특별시광진구영화사로7길24 (중곡동)",
      "purpose": "생활방범",
      "numberofcam": 1,
      "dataduration": 30,
      "setDate": "Apr-17",
      "managecontact": "02-450-7154",
      "latitude": 37.55664,
      "longitude": 127.09219
    },
    {
      "managename": "서울특별시광진구청",
      "Address1": "서울특별시광진구영화사로51 (중곡동)",
      "purpose": "생활방범",
      "numberofcam": 1,
      "dataduration": 30,
      "setDate": "Apr-17",
      "managecontact": "02-450-7154",
      "latitude": 37.53228,
      "longitude": 127.0833
    },
    {
      "managename": "서울특별시광진구청",
      "Address1": "서울특별시광진구용마산로8가길26 (중곡동)",
      "purpose": "생활방범",
      "numberofcam": 1,
      "dataduration": 30,
      "setDate": "Apr-17",
      "managecontact": "02-450-7154",
      "latitude": 37.56077,
      "longitude": 127.08886
    },
    {
      "managename": "서울특별시광진구청",
      "Address1": "서울특별시광진구용마산로8다길23 (중곡동)",
      "purpose": "생활방범",
      "numberofcam": 1,
      "dataduration": 30,
      "setDate": "Apr-17",
      "managecontact": "02-450-7154",
      "latitude": 37.56181,
      "longitude": 127.08942
    },
    {
      "managename": "서울특별시광진구청",
      "Address1": "서울특별시광진구용마산로36길66 (중곡동, 보광아트빌)",
      "purpose": "생활방범",
      "numberofcam": 1,
      "dataduration": 30,
      "setDate": "Apr-17",
      "managecontact": "02-450-7154",
      "latitude": 37.56946,
      "longitude": 127.08841
    },
    {
      "managename": "서울특별시광진구청",
      "Address1": "서울특별시광진구용마산로8길10 (중곡동, 동암아트빌)",
      "purpose": "생활방범",
      "numberofcam": 1,
      "dataduration": 30,
      "setDate": "Apr-17",
      "managecontact": "02-450-7154",
      "latitude": 37.5595863,
      "longitude": 127.088293
    },
    {
      "managename": "서울특별시광진구청",
      "Address1": "서울특별시광진구용마산로36길44 (중곡동)",
      "purpose": "생활방범",
      "numberofcam": 1,
      "dataduration": 30,
      "setDate": "Apr-17",
      "managecontact": "02-450-7154",
      "latitude": 37.57042,
      "longitude": 127.08815
    },
    {
      "managename": "서울특별시광진구청",
      "Address1": "서울특별시광진구용마산로34길15 (중곡동, 드림빌)",
      "purpose": "생활방범",
      "numberofcam": 1,
      "dataduration": 30,
      "setDate": "Apr-17",
      "managecontact": "02-450-7154",
      "latitude": 37.57016,
      "longitude": 127.08706
    },
    {
      "managename": "서울특별시광진구청",
      "Address1": "서울특별시광진구긴고랑로46가길36 (중곡동)",
      "purpose": "생활방범",
      "numberofcam": 1,
      "dataduration": 30,
      "setDate": "Apr-17",
      "managecontact": "02-450-7154",
      "latitude": 37.5586052,
      "longitude": 127.095091
    },
    {
      "managename": "서울특별시광진구청",
      "Address1": "서울특별시광진구긴고랑로46길11",
      "purpose": "생활방범",
      "numberofcam": 1,
      "dataduration": 30,
      "setDate": "Apr-17",
      "managecontact": "02-450-7154",
      "latitude": 37.56005,
      "longitude": 127.09566
    },
    {
      "managename": "서울특별시광진구청",
      "Address1": "서울특별시광진구용마산로2길45 (중곡동, 욱현아파트)",
      "purpose": "생활방범",
      "numberofcam": 1,
      "dataduration": 30,
      "setDate": "Apr-17",
      "managecontact": "02-450-7154",
      "latitude": 37.55587,
      "longitude": 127.09053
    },
    {
      "managename": "서울특별시광진구청",
      "Address1": "서울특별시광진구자양로45길65 (중곡동)",
      "purpose": "생활방범",
      "numberofcam": 1,
      "dataduration": 30,
      "setDate": "Apr-17",
      "managecontact": "02-450-7154",
      "latitude": 37.55397,
      "longitude": 127.09027
    },
    {
      "managename": "서울특별시광진구청",
      "Address1": "서울특별시광진구자양로43길86 (중곡동, 다온)",
      "purpose": "생활방범",
      "numberofcam": 1,
      "dataduration": 30,
      "setDate": "Apr-17",
      "managecontact": "02-450-7154",
      "latitude": 37.5543389,
      "longitude": 127.0894889
    },
    {
      "managename": "서울특별시광진구청",
      "Address1": "서울특별시광진구아차산로21길47 (화양동)",
      "purpose": "생활방범",
      "numberofcam": 1,
      "dataduration": 30,
      "setDate": "Apr-17",
      "managecontact": "02-450-7154",
      "latitude": 37.5441566,
      "longitude": 127.0653326
    },
    {
      "managename": "서울특별시광진구청",
      "Address1": "서울특별시광진구강변역로17 (구의동)",
      "purpose": "시설물관리",
      "numberofcam": 1,
      "dataduration": 30,
      "setDate": "Dec-17",
      "managecontact": "02-450-1245",
      "latitude": 37.5380029,
      "longitude": 127.0920258
    },
    {
      "managename": "서울특별시광진구청",
      "Address1": "서울특별시광진구아차산로23길68 (화양동)",
      "purpose": "생활방범",
      "numberofcam": 1,
      "dataduration": 30,
      "setDate": "Apr-17",
      "managecontact": "02-450-7154",
      "latitude": 37.54497,
      "longitude": 127.06746
    },
    {
      "managename": "서울특별시광진구청",
      "Address1": "서울특별시광진구아차산로25길27 (화양동)",
      "purpose": "생활방범",
      "numberofcam": 1,
      "dataduration": 30,
      "setDate": "Apr-17",
      "managecontact": "02-450-7154",
      "latitude": 37.5426677,
      "longitude": 127.067029
    },
    {
      "managename": "서울특별시광진구청",
      "Address1": "서울특별시광진구동일로24길56 (화양동)",
      "purpose": "생활방범",
      "numberofcam": 1,
      "dataduration": 30,
      "setDate": "Apr-17",
      "managecontact": "02-450-7154",
      "latitude": 37.5430758,
      "longitude": 127.068117
    },
    {
      "managename": "서울특별시광진구청",
      "Address1": "서울특별시광진구동일로22길28 (화양동)",
      "purpose": "생활방범",
      "numberofcam": 1,
      "dataduration": 30,
      "setDate": "Apr-17",
      "managecontact": "02-450-7154",
      "latitude": 37.54209,
      "longitude": 127.06582
    },
    {
      "managename": "서울특별시광진구청",
      "Address1": "서울특별시광진구능동로110 (화양동)",
      "purpose": "생활방범",
      "numberofcam": 1,
      "dataduration": 30,
      "setDate": "Apr-17",
      "managecontact": "02-450-7154",
      "latitude": 37.5400142,
      "longitude": 127.0709823
    },
    {
      "managename": "서울특별시광진구청",
      "Address1": "서울특별시광진구아차산로241 (화양동)",
      "purpose": "생활방범",
      "numberofcam": 1,
      "dataduration": 30,
      "setDate": "Apr-17",
      "managecontact": "02-450-7154",
      "latitude": 37.5405891,
      "longitude": 127.0704592
    },
    {
      "managename": "서울특별시광진구청",
      "Address1": "서울특별시광진구동일로24길77 (화양동)",
      "purpose": "생활방범",
      "numberofcam": 1,
      "dataduration": 30,
      "setDate": "Apr-17",
      "managecontact": "02-450-7154",
      "latitude": 37.54286,
      "longitude": 127.06923
    },
    {
      "managename": "서울특별시광진구청",
      "Address1": "서울특별시광진구군자로3길25-16 (화양동)",
      "purpose": "생활방범",
      "numberofcam": 1,
      "dataduration": 30,
      "setDate": "Apr-17",
      "managecontact": "02-450-7154",
      "latitude": 37.5437,
      "longitude": 127.07055
    },
    {
      "managename": "서울특별시광진구청",
      "Address1": "서울특별시광진구군자로5길18-12 (화양동)",
      "purpose": "생활방범",
      "numberofcam": 1,
      "dataduration": 30,
      "setDate": "Apr-17",
      "managecontact": "02-450-7154",
      "latitude": 37.54558,
      "longitude": 127.06957
    },
    {
      "managename": "서울특별시광진구청",
      "Address1": "서울특별시광진구긴고랑로46길11",
      "purpose": "생활방범",
      "numberofcam": 1,
      "dataduration": 30,
      "setDate": "Apr-17",
      "managecontact": "02-450-7154",
      "latitude": 37.5456124,
      "longitude": 127.073961
    },
    {
      "managename": "서울특별시광진구청",
      "Address1": "서울특별시광진구능동로13길88 (화양동)",
      "purpose": "생활방범",
      "numberofcam": 1,
      "dataduration": 30,
      "setDate": "Apr-17",
      "managecontact": "02-450-7154",
      "latitude": 37.5453867,
      "longitude": 127.0686498
    },
    {
      "managename": "서울특별시광진구청",
      "Address1": "서울특별시광진구동일로28길38 (화양동)",
      "purpose": "생활방범",
      "numberofcam": 1,
      "dataduration": 30,
      "setDate": "Apr-17",
      "managecontact": "02-450-7154",
      "latitude": 37.5461962,
      "longitude": 127.0688259
    },
    {
      "managename": "서울특별시광진구청",
      "Address1": "서울특별시광진구아차산로25길48 (화양동)",
      "purpose": "생활방범",
      "numberofcam": 1,
      "dataduration": 30,
      "setDate": "Apr-17",
      "managecontact": "02-450-7154",
      "latitude": 37.5433702,
      "longitude": 127.0675709
    },
    {
      "managename": "서울특별시광진구청",
      "Address1": "서울특별시광진구동일로22길71 (화양동)",
      "purpose": "생활방범",
      "numberofcam": 1,
      "dataduration": 30,
      "setDate": "Apr-17",
      "managecontact": "02-450-7154",
      "latitude": 37.5413545,
      "longitude": 127.0683031
    },
    {
      "managename": "서울특별시광진구청",
      "Address1": "서울특별시광진구광나루로24길12 (화양동)",
      "purpose": "생활방범",
      "numberofcam": 1,
      "dataduration": 30,
      "setDate": "Apr-17",
      "managecontact": "02-450-7154",
      "latitude": 37.53347,
      "longitude": 127.08109
    },
    {
      "managename": "서울특별시광진구청",
      "Address1": "서울특별시광진구광나루로22길7",
      "purpose": "생활방범",
      "numberofcam": 1,
      "dataduration": 30,
      "setDate": "Apr-17",
      "managecontact": "02-450-7154",
      "latitude": 37.5462033,
      "longitude": 127.0752548
    },
    {
      "managename": "서울특별시광진구청",
      "Address1": "서울특별시광진구광나루로20가길21 (화양동)",
      "purpose": "생활방범",
      "numberofcam": 1,
      "dataduration": 30,
      "setDate": "Apr-17",
      "managecontact": "02-450-7154",
      "latitude": 37.5450933,
      "longitude": 127.0754252
    },
    {
      "managename": "서울특별시광진구청",
      "Address1": "서울특별시광진구광나루로26길24 (화양동)",
      "purpose": "생활방범",
      "numberofcam": 1,
      "dataduration": 30,
      "setDate": "Apr-17",
      "managecontact": "02-450-7154",
      "latitude": 37.5453429,
      "longitude": 127.0772689
    },
    {
      "managename": "서울특별시광진구청",
      "Address1": "서울특별시광진구아차산로31길14 (화양동)",
      "purpose": "생활방범",
      "numberofcam": 1,
      "dataduration": 30,
      "setDate": "Apr-17",
      "managecontact": "02-450-7154",
      "latitude": 37.5416143,
      "longitude": 127.069611
    },
    {
      "managename": "서울특별시광진구청",
      "Address1": "서울특별시광진구긴고랑로19 (중곡동)",
      "purpose": "생활방범",
      "numberofcam": 1,
      "dataduration": 30,
      "setDate": "Apr-17",
      "managecontact": "02-450-7154",
      "latitude": 37.56371,
      "longitude": 127.07875
    },
    {
      "managename": "서울특별시광진구청",
      "Address1": "서울특별시광진구긴고랑로16길50 (중곡동, 미주빌)",
      "purpose": "생활방범",
      "numberofcam": 1,
      "dataduration": 30,
      "setDate": "Apr-17",
      "managecontact": "02-450-7154",
      "latitude": 37.55986,
      "longitude": 127.08166
    },
    {
      "managename": "서울특별시광진구청",
      "Address1": "서울특별시광진구답십리로78길9-16 (중곡동)",
      "purpose": "생활방범",
      "numberofcam": 1,
      "dataduration": 30,
      "setDate": "Apr-17",
      "managecontact": "02-450-7154",
      "latitude": 37.57092,
      "longitude": 127.08219
    },
    {
      "managename": "서울특별시광진구청",
      "Address1": "서울특별시광진구용마산로4길26 (중곡동, 그랑아트빌)",
      "purpose": "생활방범",
      "numberofcam": 1,
      "dataduration": 30,
      "setDate": "Apr-17",
      "managecontact": "02-450-7154",
      "latitude": 37.55642,
      "longitude": 127.08971
    },
    {
      "managename": "서울특별시광진구청",
      "Address1": "서울특별시광진구천호대로110길122 (능동)",
      "purpose": "생활방범",
      "numberofcam": 1,
      "dataduration": 30,
      "setDate": "Apr-17",
      "managecontact": "02-450-7154",
      "latitude": 37.5521225,
      "longitude": 127.07769
    },
    {
      "managename": "서울특별시광진구청",
      "Address1": "서울특별시광진구자양로47길11 (구의동)",
      "purpose": "생활방범",
      "numberofcam": 1,
      "dataduration": 30,
      "setDate": "Apr-17",
      "managecontact": "02-450-7154",
      "latitude": 37.5521889,
      "longitude": 127.0919417
    },
    {
      "managename": "서울특별시광진구청",
      "Address1": "서울특별시광진구광나루로52길66 (구의동)",
      "purpose": "생활방범",
      "numberofcam": 1,
      "dataduration": 30,
      "setDate": "Apr-17",
      "managecontact": "02-450-7154",
      "latitude": 37.5398,
      "longitude": 127.0922
    },
    {
      "managename": "서울특별시광진구청",
      "Address1": "서울특별시광진구광장로7길7 (광장동)",
      "purpose": "생활방범",
      "numberofcam": 1,
      "dataduration": 30,
      "setDate": "Apr-17",
      "managecontact": "02-450-7154",
      "latitude": 37.54813,
      "longitude": 127.10556
    },
    {
      "managename": "서울특별시광진구청",
      "Address1": "서울특별시광진구자양로15길108 (자양동)",
      "purpose": "생활방범",
      "numberofcam": 1,
      "dataduration": 30,
      "setDate": "Apr-17",
      "managecontact": "02-450-7154",
      "latitude": 37.53442,
      "longitude": 127.07795
    },
    {
      "managename": "서울특별시광진구청",
      "Address1": "서울특별시광진구동일로28길16 (화양동)",
      "purpose": "생활방범",
      "numberofcam": 1,
      "dataduration": 30,
      "setDate": "Apr-17",
      "managecontact": "02-450-7154",
      "latitude": 37.54652,
      "longitude": 127.06771
    },
    {
      "managename": "서울특별시광진구청",
      "Address1": "서울특별시광진구자양로3길7 (자양동)",
      "purpose": "생활방범",
      "numberofcam": 1,
      "dataduration": 30,
      "setDate": "Apr-17",
      "managecontact": "02-450-7154",
      "latitude": 37.5303967,
      "longitude": 127.0850219
    },
    {
      "managename": "서울특별시광진구청",
      "Address1": "서울특별시광진구뚝섬로40길31 (자양동)",
      "purpose": "생활방범",
      "numberofcam": 1,
      "dataduration": 30,
      "setDate": "Apr-17",
      "managecontact": "02-450-7154",
      "latitude": 37.53258,
      "longitude": 127.07262
    },
    {
      "managename": "서울특별시광진구청",
      "Address1": "서울특별시광진구뚝섬로22길89 (자양동, 대농연립)",
      "purpose": "생활방범",
      "numberofcam": 1,
      "dataduration": 30,
      "setDate": "Apr-17",
      "managecontact": "02-450-7154",
      "latitude": 37.53435,
      "longitude": 127.06245
    },
    {
      "managename": "서울특별시광진구청",
      "Address1": "서울특별시광진구군자로38 (화양동)",
      "purpose": "생활방범",
      "numberofcam": 1,
      "dataduration": 30,
      "setDate": "Apr-17",
      "managecontact": "02-450-7154",
      "latitude": 37.5464096,
      "longitude": 127.0702878
    },
    {
      "managename": "서울특별시광진구청",
      "Address1": "서울특별시광진구능동로31길12-15 (군자동)",
      "purpose": "생활방범",
      "numberofcam": 1,
      "dataduration": 30,
      "setDate": "Apr-17",
      "managecontact": "02-450-7154",
      "latitude": 37.5562937,
      "longitude": 127.0782567
    },
    {
      "managename": "서울특별시광진구청",
      "Address1": "서울특별시광진구자양로30길29 (구의동)",
      "purpose": "생활방범",
      "numberofcam": 1,
      "dataduration": 30,
      "setDate": "Apr-17",
      "managecontact": "02-450-7154",
      "latitude": 37.543464,
      "longitude": 127.086413
    },
    {
      "managename": "서울특별시광진구청",
      "Address1": "서울특별시광진구천호대로121길6 (중곡동, 유진쎄인트빌)",
      "purpose": "생활방범",
      "numberofcam": 1,
      "dataduration": 30,
      "setDate": "Apr-17",
      "managecontact": "02-450-7154",
      "latitude": 37.555435,
      "longitude": 127.086602
    },
    {
      "managename": "서울특별시광진구청",
      "Address1": "서울특별시광진구자양번영로13길32 (자양동)",
      "purpose": "생활방범",
      "numberofcam": 1,
      "dataduration": 30,
      "setDate": "Apr-17",
      "managecontact": "02-450-7154",
      "latitude": 37.537861,
      "longitude": 127.075116
    },
    {
      "managename": "서울특별시광진구청",
      "Address1": "서울특별시광진구동일로20길106 (자양동)",
      "purpose": "생활방범",
      "numberofcam": 1,
      "dataduration": 30,
      "setDate": "Apr-17",
      "managecontact": "02-450-7154",
      "latitude": 37.5395892,
      "longitude": 127.069137
    },
    {
      "managename": "서울특별시광진구청",
      "Address1": "서울특별시광진구광나루로30다길30 (구의동, 휴하우스-Ⅱ)",
      "purpose": "어린이보호",
      "numberofcam": 1,
      "dataduration": 30,
      "setDate": "Apr-17",
      "managecontact": "02-450-7958",
      "latitude": 37.5427826,
      "longitude": 127.083019
    },
    {
      "managename": "서울특별시광진구청",
      "Address1": "서울특별시광진구강변역로17 (구의동)",
      "purpose": "시설물관리",
      "numberofcam": 1,
      "dataduration": 30,
      "setDate": "Dec-17",
      "managecontact": "02-450-1245",
      "latitude": 37.5380029,
      "longitude": 127.0920258
    },
    {
      "managename": "서울특별시광진구청",
      "Address1": "서울특별시광진구강변역로17 (구의동)",
      "purpose": "시설물관리",
      "numberofcam": 1,
      "dataduration": 30,
      "setDate": "Dec-17",
      "managecontact": "02-450-1245",
      "latitude": 37.5380029,
      "longitude": 127.0920258
    },
    {
      "managename": "서울특별시광진구청",
      "Address1": "서울특별시광진구강변역로17 (구의동)",
      "purpose": "시설물관리",
      "numberofcam": 1,
      "dataduration": 30,
      "setDate": "Dec-17",
      "managecontact": "02-450-1245",
      "latitude": 37.5380029,
      "longitude": 127.0920258
    },
    {
      "managename": "서울특별시광진구청",
      "Address1": "서울특별시광진구강변역로17 (구의동)",
      "purpose": "시설물관리",
      "numberofcam": 1,
      "dataduration": 30,
      "setDate": "Dec-17",
      "managecontact": "02-450-1245",
      "latitude": 37.5380029,
      "longitude": 127.0920258
    },
    {
      "managename": "서울특별시광진구청",
      "Address1": "서울특별시광진구강변역로17 (구의동)",
      "purpose": "시설물관리",
      "numberofcam": 1,
      "dataduration": 30,
      "setDate": "Dec-17",
      "managecontact": "02-450-1245",
      "latitude": 37.5380029,
      "longitude": 127.0920258
    },
    {
      "managename": "서울특별시광진구청",
      "Address1": "서울특별시광진구강변역로17 (구의동)",
      "purpose": "시설물관리",
      "numberofcam": 1,
      "dataduration": 30,
      "setDate": "Dec-17",
      "managecontact": "02-450-1245",
      "latitude": 37.5380029,
      "longitude": 127.0920258
    },
    {
      "managename": "서울특별시광진구청",
      "Address1": "서울특별시광진구강변역로17 (구의동)",
      "purpose": "시설물관리",
      "numberofcam": 1,
      "dataduration": 30,
      "setDate": "Dec-17",
      "managecontact": "02-450-1245",
      "latitude": 37.5380029,
      "longitude": 127.0920258
    },
    {
      "managename": "서울특별시광진구청",
      "Address1": "서울특별시광진구강변역로17 (구의동)",
      "purpose": "시설물관리",
      "numberofcam": 1,
      "dataduration": 30,
      "setDate": "Dec-17",
      "managecontact": "02-450-1245",
      "latitude": 37.5380029,
      "longitude": 127.0920258
    },
    {
      "managename": "서울특별시광진구청",
      "Address1": "서울특별시광진구강변역로17 (구의동)",
      "purpose": "시설물관리",
      "numberofcam": 1,
      "dataduration": 30,
      "setDate": "Dec-17",
      "managecontact": "02-450-1245",
      "latitude": 37.5380029,
      "longitude": 127.0920258
    },
    {
      "managename": "서울특별시광진구청",
      "Address1": "서울특별시광진구긴고랑로110 (중곡동)",
      "purpose": "시설물관리",
      "numberofcam": 1,
      "dataduration": 30,
      "setDate": "Feb-17",
      "managecontact": "02-450-1458",
      "latitude": 37.5594186,
      "longitude": 127.0871598
    },
    {
      "managename": "서울특별시광진구청",
      "Address1": "서울특별시광진구긴고랑로110 (중곡동)",
      "purpose": "시설물관리",
      "numberofcam": 1,
      "dataduration": 30,
      "setDate": "Feb-17",
      "managecontact": "02-450-1458",
      "latitude": 37.5594186,
      "longitude": 127.0871598
    },
    {
      "managename": "서울특별시광진구청",
      "Address1": "서울특별시광진구긴고랑로110 (중곡동)",
      "purpose": "시설물관리",
      "numberofcam": 1,
      "dataduration": 30,
      "setDate": "Feb-17",
      "managecontact": "02-450-1458",
      "latitude": 37.5594186,
      "longitude": 127.0871598
    },
    {
      "managename": "서울특별시광진구청",
      "Address1": "서울특별시광진구긴고랑로110 (중곡동)",
      "purpose": "시설물관리",
      "numberofcam": 1,
      "dataduration": 30,
      "setDate": "Feb-17",
      "managecontact": "02-450-1458",
      "latitude": 37.5594186,
      "longitude": 127.0871598
    },
    {
      "managename": "서울특별시광진구청",
      "Address1": "서울특별시광진구긴고랑로110 (중곡동)",
      "purpose": "시설물관리",
      "numberofcam": 1,
      "dataduration": 30,
      "setDate": "Feb-17",
      "managecontact": "02-450-1458",
      "latitude": 37.5594186,
      "longitude": 127.0871598
    },
    {
      "managename": "서울특별시광진구청",
      "Address1": "서울특별시광진구긴고랑로110 (중곡동)",
      "purpose": "시설물관리",
      "numberofcam": 1,
      "dataduration": 30,
      "setDate": "Feb-17",
      "managecontact": "02-450-1458",
      "latitude": 37.5594186,
      "longitude": 127.0871598
    },
    {
      "managename": "서울특별시광진구청",
      "Address1": "서울특별시광진구긴고랑로110 (중곡동)",
      "purpose": "시설물관리",
      "numberofcam": 1,
      "dataduration": 30,
      "setDate": "Feb-17",
      "managecontact": "02-450-1458",
      "latitude": 37.5594186,
      "longitude": 127.0871598
    },
    {
      "managename": "서울특별시광진구청",
      "Address1": "서울특별시광진구긴고랑로110 (중곡동)",
      "purpose": "시설물관리",
      "numberofcam": 1,
      "dataduration": 30,
      "setDate": "Feb-17",
      "managecontact": "02-450-1458",
      "latitude": 37.5594186,
      "longitude": 127.0871598
    },
    {
      "managename": "서울특별시광진구청",
      "Address1": "서울특별시광진구긴고랑로110 (중곡동)",
      "purpose": "시설물관리",
      "numberofcam": 1,
      "dataduration": 30,
      "setDate": "Feb-17",
      "managecontact": "02-450-1458",
      "latitude": 37.5594186,
      "longitude": 127.0871598
    },
    {
      "managename": "서울특별시광진구청",
      "Address1": "서울특별시광진구긴고랑로110 (중곡동)",
      "purpose": "시설물관리",
      "numberofcam": 1,
      "dataduration": 30,
      "setDate": "Feb-17",
      "managecontact": "02-450-1458",
      "latitude": 37.5594186,
      "longitude": 127.0871598
    },
    {
      "managename": "서울특별시광진구청",
      "Address1": "서울특별시광진구긴고랑로110 (중곡동)",
      "purpose": "시설물관리",
      "numberofcam": 1,
      "dataduration": 30,
      "setDate": "Feb-17",
      "managecontact": "02-450-1458",
      "latitude": 37.5594186,
      "longitude": 127.0871598
    },
    {
      "managename": "서울특별시광진구청",
      "Address1": "서울특별시광진구긴고랑로12길49 (중곡동)",
      "purpose": "시설물관리",
      "numberofcam": 1,
      "dataduration": 30,
      "setDate": "Sep-17",
      "managecontact": "02-450-1015",
      "latitude": 37.5606007,
      "longitude": 127.0800429
    },
    {
      "managename": "서울특별시광진구청",
      "Address1": "서울특별시광진구긴고랑로12길49 (중곡동)",
      "purpose": "시설물관리",
      "numberofcam": 1,
      "dataduration": 30,
      "setDate": "Sep-17",
      "managecontact": "02-450-1015",
      "latitude": 37.5606007,
      "longitude": 127.0800429
    },
    {
      "managename": "서울특별시광진구청",
      "Address1": "서울특별시광진구능동로346 (중곡동)",
      "purpose": "시설물관리",
      "numberofcam": 1,
      "dataduration": 30,
      "setDate": "Sep-17",
      "managecontact": "02-450-1033",
      "latitude": 37.5602559,
      "longitude": 127.0814976
    },
    {
      "managename": "서울특별시광진구청",
      "Address1": "서울특별시광진구능동로346 (중곡동)",
      "purpose": "시설물관리",
      "numberofcam": 1,
      "dataduration": 30,
      "setDate": "Sep-17",
      "managecontact": "02-450-1033",
      "latitude": 37.5602559,
      "longitude": 127.0814976
    },
    {
      "managename": "서울특별시광진구청",
      "Address1": "서울특별시광진구동일로76가길28 (중곡동)",
      "purpose": "시설물관리",
      "numberofcam": 1,
      "dataduration": 30,
      "setDate": "Sep-17",
      "managecontact": "02-450-1052",
      "latitude": 37.5688152,
      "longitude": 127.0801637
    },
    {
      "managename": "서울특별시광진구청",
      "Address1": "서울특별시광진구긴고랑로131 (중곡동)",
      "purpose": "시설물관리",
      "numberofcam": 1,
      "dataduration": 30,
      "setDate": "Sep-17",
      "managecontact": "02-450-1073",
      "latitude": 37.5590958,
      "longitude": 127.089436
    },
    {
      "managename": "서울특별시광진구청",
      "Address1": "서울특별시광진구긴고랑로131 (중곡동)",
      "purpose": "시설물관리",
      "numberofcam": 1,
      "dataduration": 30,
      "setDate": "Sep-17",
      "managecontact": "02-450-1073",
      "latitude": 37.5590958,
      "longitude": 127.089436
    },
    {
      "managename": "서울특별시광진구청",
      "Address1": "서울특별시광진구긴고랑로131 (중곡동)",
      "purpose": "시설물관리",
      "numberofcam": 1,
      "dataduration": 30,
      "setDate": "Sep-17",
      "managecontact": "02-450-1073",
      "latitude": 37.5590958,
      "longitude": 127.089436
    },
    {
      "managename": "서울특별시광진구청",
      "Address1": "서울특별시광진구긴고랑로131 (중곡동)",
      "purpose": "시설물관리",
      "numberofcam": 1,
      "dataduration": 30,
      "setDate": "Sep-17",
      "managecontact": "02-450-1073",
      "latitude": 37.5590958,
      "longitude": 127.089436
    },
    {
      "managename": "서울특별시광진구청",
      "Address1": "서울특별시광진구긴고랑로131 (중곡동)",
      "purpose": "시설물관리",
      "numberofcam": 1,
      "dataduration": 30,
      "setDate": "Sep-17",
      "managecontact": "02-450-1073",
      "latitude": 37.5590958,
      "longitude": 127.089436
    },
    {
      "managename": "서울특별시광진구청",
      "Address1": "서울특별시광진구천호대로112길55 (능동)",
      "purpose": "시설물관리",
      "numberofcam": 1,
      "dataduration": 30,
      "setDate": "Sep-17",
      "managecontact": "02-450-1122",
      "latitude": 37.5537778,
      "longitude": 127.0805577
    },